var davy = {"type":"FeatureCollection","features":[{"type":"Feature","properties":{"marker-color":"#fff","marker-size":"large","marker-symbol":"commercial","name":"Capital Planning, Design & Construction"},"geometry":{"type":"Point","coordinates":[-122.48159408569336,37.725990426653134]}},{"type":"Feature","properties":{"marker-color":"#fff","marker-size":"large","marker-symbol":"college","name":"San Francisco State University"},"geometry":{"type":"Point","coordinates":[-122.47597217559813,37.72208679574618]}},{"type":"Feature","properties":{"marker-color":"#fff","marker-size":"large","marker-symbol":"commercial","name":"United States Geologic Survey"},"geometry":{"type":"Point","coordinates":[-122.17126250267029,37.45648978642132]}},{"type":"Feature","properties":{"marker-color":"#fff","marker-size":"large","marker-symbol":"commercial","name":"Asbuilt Services"},"geometry":{"type":"Point","coordinates":[-121.98849141597748,37.56199270080054]}},{"type":"Feature","properties":{"marker-color":"#fff","marker-size":"large","marker-symbol":"commercial","name":"Dept. Public Works"},"geometry":{"type":"Point","coordinates":[-122.41351962089538,37.77928833373975]}}]};