var DPW = {"type":"FeatureCollection","features":[{"geometry": {"type": "Point", "coordinates": [-122.50585367844086, 37.73564415961874]}, "type": "Feature", "id": 0, "properties": {"LocSite": "Median", "DBH": 12.0, "CommonName": "Mediterranean Fan Palm", "Height": "NULL", "TreeID": 27654.0, "Street": "Sloat Blvd", "SiteOrder": 1.0, "ICOUNT": 1, "LatinName": "Chamaerops humilis", "AddressNo": 2968.0}},{"geometry": {"type": "Point", "coordinates": [-122.50542079681189, 37.73568441423807]}, "type": "Feature", "id": 1, "properties": {"LocSite": "Median", "DBH": 12.0, "CommonName": "Mediterranean Fan Palm", "Height": "NULL", "TreeID": 27653.0, "Street": "SLOAT BLVD", "SiteOrder": 1.0, "ICOUNT": 1, "LatinName": "Chamaerops humilis", "AddressNo": 2920.0}},{"geometry": {"type": "Point", "coordinates": [-122.50458557654156, 37.73624342667554]}, "type": "Feature", "id": 2, "properties": {"LocSite": "Sidewalk, Curb side", "DBH": 0.0, "CommonName": "Pink Melaleuca", "Height": "NULL", "TreeID": 31651.0, "Street": "Wawona St", "SiteOrder": 1.0, "ICOUNT": 1, "LatinName": "Melaleuca nesophila", "AddressNo": 3530.0}},{"geometry": {"type": "Point", "coordinates": [-122.50455396802734, 37.73563404554599]}, "type": "Feature", "id": 3, "properties": {"LocSite": "Median", "DBH": 12.0, "CommonName": "Mediterranean Fan Palm", "Height": "NULL", "TreeID": 27652.0, "Street": "Sloat Blvd", "SiteOrder": 1.0, "ICOUNT": 1, "LatinName": "Chamaerops humilis", "AddressNo": 2830.0}},{"geometry": {"type": "Point", "coordinates": [-122.50544287556203, 37.73674856144043]}, "type": "Feature", "id": 4, "properties": {"LocSite": "Sidewalk, Curb side", "DBH": 0.0, "CommonName": "Hybrid Strawberry Tree", "Height": "NULL", "TreeID": 31629.0, "Street": "47th Ave", "SiteOrder": 1.0, "ICOUNT": 1, "LatinName": "Arbutus 'Marina'", "AddressNo": 2667.0}},{"geometry": {"type": "Point", "coordinates": [-122.50364711948825, 37.735627495241076]}, "type": "Feature", "id": 5, "properties": {"LocSite": "Median", "DBH": 12.0, "CommonName": "Mediterranean Fan Palm", "Height": "NULL", "TreeID": 27651.0, "Street": "Sloat Blvd", "SiteOrder": 1.0, "ICOUNT": 1, "LatinName": "Chamaerops humilis", "AddressNo": 2750.0}},{"geometry": {"type": "Point", "coordinates": [-122.50261420987756, 37.7356307759329]}, "type": "Feature", "id": 6, "properties": {"LocSite": "Median", "DBH": 12.0, "CommonName": "Mediterranean Fan Palm", "Height": "NULL", "TreeID": 27650.0, "Street": "Sloat Blvd", "SiteOrder": 1.0, "ICOUNT": 1, "LatinName": "Chamaerops humilis", "AddressNo": 2650.0}},{"geometry": {"type": "Point", "coordinates": [-122.5011949567816, 37.73541891759587]}, "type": "Feature", "id": 7, "properties": {"LocSite": "Median", "DBH": 12.0, "CommonName": "Mediterranean Fan Palm", "Height": "NULL", "TreeID": 27649.0, "Street": "Sloat Blvd", "SiteOrder": 1.0, "ICOUNT": 1, "LatinName": "Chamaerops humilis", "AddressNo": 2518.0}},{"geometry": {"type": "Point", "coordinates": [-122.50006196725705, 37.73498295902499]}, "type": "Feature", "id": 8, "properties": {"LocSite": "Median", "DBH": 12.0, "CommonName": "Mediterranean Fan Palm", "Height": "NULL", "TreeID": 27648.0, "Street": "Sloat Blvd", "SiteOrder": 1.0, "ICOUNT": 1, "LatinName": "Chamaerops humilis", "AddressNo": 2400.0}},{"geometry": {"type": "Point", "coordinates": [-122.49913363081492, 37.734359845972385]}, "type": "Feature", "id": 9, "properties": {"LocSite": "Median", "DBH": 12.0, "CommonName": "Mediterranean Fan Palm", "Height": "NULL", "TreeID": 27647.0, "Street": "Sloat Blvd", "SiteOrder": 1.0, "ICOUNT": 1, "LatinName": "Chamaerops humilis", "AddressNo": 2300.0}},{"geometry": {"type": "Point", "coordinates": [-122.49865435546356, 37.73428241228398]}, "type": "Feature", "id": 10, "properties": {"LocSite": "Median", "DBH": 12.0, "CommonName": "Mediterranean Fan Palm", "Height": "NULL", "TreeID": 27646.0, "Street": "Sloat Blvd", "SiteOrder": 1.0, "ICOUNT": 1, "LatinName": "Chamaerops humilis", "AddressNo": 2260.0}},{"geometry": {"type": "Point", "coordinates": [-122.50637580610874, 37.73809875189116]}, "type": "Feature", "id": 11, "properties": {"LocSite": "Sidewalk, Curb side", "DBH": 0.0, "CommonName": "Pink Melaleuca", "Height": "NULL", "TreeID": 31639.0, "Street": "Great Hwy", "SiteOrder": 1.0, "ICOUNT": 3, "LatinName": "Melaleuca nesophila", "AddressNo": 2594.0}},{"geometry": {"type": "Point", "coordinates": [-122.50637934721016, 37.738126071086]}, "type": "Feature", "id": 12, "properties": {"LocSite": "Sidewalk, Curb side", "DBH": 0.0, "CommonName": "Pink Melaleuca", "Height": "NULL", "TreeID": 31640.0, "Street": "Great Hwy", "SiteOrder": 2.0, "ICOUNT": 3, "LatinName": "Melaleuca nesophila", "AddressNo": 2594.0}},{"geometry": {"type": "Point", "coordinates": [-122.50638288827965, 37.73815339028119]}, "type": "Feature", "id": 13, "properties": {"LocSite": "Sidewalk, Curb side", "DBH": 0.0, "CommonName": "Pink Melaleuca", "Height": "NULL", "TreeID": 31641.0, "Street": "Great Hwy", "SiteOrder": 3.0, "ICOUNT": 3, "LatinName": "Melaleuca nesophila", "AddressNo": 2594.0}},{"geometry": {"type": "Point", "coordinates": [-122.50578611775998, 37.73806535389815]}, "type": "Feature", "id": 14, "properties": {"LocSite": "Sidewalk, Curb side", "DBH": 3.0, "CommonName": "Pink Melaleuca", "Height": "8", "TreeID": 31650.0, "Street": "Vicente St", "SiteOrder": 1.0, "ICOUNT": 1, "LatinName": "Melaleuca nesophila", "AddressNo": 3632.0}},{"geometry": {"type": "Point", "coordinates": [-122.50572816672756, 37.738067894185335]}, "type": "Feature", "id": 15, "properties": {"LocSite": "Sidewalk, Curb side", "DBH": 0.0, "CommonName": "Pink Melaleuca", "Height": "NULL", "TreeID": 31649.0, "Street": "Vicente St", "SiteOrder": 1.0, "ICOUNT": 1, "LatinName": "Melaleuca nesophila", "AddressNo": 3626.0}},{"geometry": {"type": "Point", "coordinates": [-122.50557079781548, 37.73855885294806]}, "type": "Feature", "id": 16, "properties": {"LocSite": "Sidewalk, Curb side", "DBH": 0.0, "CommonName": "Australian Tea Tree", "Height": "NULL", "TreeID": 31667.0, "Street": "47th Ave", "SiteOrder": 1.0, "ICOUNT": 1, "LatinName": "Leptospermum laevigatum", "AddressNo": 2571.0}},{"geometry": {"type": "Point", "coordinates": [-122.50655085387518, 37.7394492099787]}, "type": "Feature", "id": 17, "properties": {"LocSite": "Sidewalk, Curb side", "DBH": 0.0, "CommonName": "Pink Melaleuca", "Height": "NULL", "TreeID": 31632.0, "Street": "Great Hwy", "SiteOrder": 1.0, "ICOUNT": 1, "LatinName": "Melaleuca nesophila", "AddressNo": 2518.0}},{"geometry": {"type": "Point", "coordinates": [-122.50654164067747, 37.739378133229586]}, "type": "Feature", "id": 18, "properties": {"LocSite": "Sidewalk, Curb side", "DBH": 0.0, "CommonName": "Pink Melaleuca", "Height": "NULL", "TreeID": 31633.0, "Street": "Great Hwy", "SiteOrder": 1.0, "ICOUNT": 1, "LatinName": "Melaleuca nesophila", "AddressNo": 2522.0}},{"geometry": {"type": "Point", "coordinates": [-122.50653242749814, 37.73930705650638]}, "type": "Feature", "id": 19, "properties": {"LocSite": "Sidewalk, Curb side", "DBH": 0.0, "CommonName": "Pink Melaleuca", "Height": "NULL", "TreeID": 31634.0, "Street": "Great Hwy", "SiteOrder": 1.0, "ICOUNT": 1, "LatinName": "Melaleuca nesophila", "AddressNo": 2526.0}},{"geometry": {"type": "Point", "coordinates": [-122.50650478806656, 37.739093826354825]}, "type": "Feature", "id": 20, "properties": {"LocSite": "Sidewalk, Curb side", "DBH": 0.0, "CommonName": "Pink Melaleuca", "Height": "NULL", "TreeID": 31635.0, "Street": "Great Hwy", "SiteOrder": 1.0, "ICOUNT": 1, "LatinName": "Melaleuca nesophila", "AddressNo": 2538.0}},{"geometry": {"type": "Point", "coordinates": [-122.50649557495625, 37.73902274957046]}, "type": "Feature", "id": 21, "properties": {"LocSite": "Sidewalk, Curb side", "DBH": 0.0, "CommonName": "Pink Melaleuca", "Height": "NULL", "TreeID": 31636.0, "Street": "Great Hwy", "SiteOrder": 1.0, "ICOUNT": 1, "LatinName": "Melaleuca nesophila", "AddressNo": 2542.0}},{"geometry": {"type": "Point", "coordinates": [-122.5064771487907, 37.738880596079404]}, "type": "Feature", "id": 22, "properties": {"LocSite": "Sidewalk, Curb side", "DBH": 0.0, "CommonName": "Dracena Palm", "Height": "NULL", "TreeID": 31637.0, "Street": "Great Hwy", "SiteOrder": 1.0, "ICOUNT": 1, "LatinName": "Cordyline australis", "AddressNo": 2550.0}},{"geometry": {"type": "Point", "coordinates": [-122.50644950967632, 37.738667365899765]}, "type": "Feature", "id": 23, "properties": {"LocSite": "Sidewalk, Curb side", "DBH": 0.0, "CommonName": "Pink Melaleuca", "Height": "NULL", "TreeID": 31638.0, "Street": "Great Hwy", "SiteOrder": 1.0, "ICOUNT": 1, "LatinName": "Melaleuca nesophila", "AddressNo": 2562.0}},{"geometry": {"type": "Point", "coordinates": [-122.50433163763502, 37.73875624556366]}, "type": "Feature", "id": 24, "properties": {"LocSite": "Sidewalk, Curb side", "DBH": 0.0, "CommonName": "Pink Melaleuca", "Height": "NULL", "TreeID": 31626.0, "Street": "46th Ave", "SiteOrder": 1.0, "ICOUNT": 1, "LatinName": "Melaleuca nesophila", "AddressNo": 2562.0}},{"geometry": {"type": "Point", "coordinates": [-122.5066497191552, 37.7401699934512]}, "type": "Feature", "id": 25, "properties": {"LocSite": "Sidewalk, Curb side", "DBH": 0.0, "CommonName": "New Zealand Xmas Tree", "Height": "NULL", "TreeID": 31630.0, "Street": "Great Hwy", "SiteOrder": 1.0, "ICOUNT": 1, "LatinName": "Metrosideros excelsa", "AddressNo": 2482.0}},{"geometry": {"type": "Point", "coordinates": [-122.50657849357252, 37.739662440161744]}, "type": "Feature", "id": 26, "properties": {"LocSite": "Sidewalk, Curb side", "DBH": 0.0, "CommonName": "Pink Melaleuca", "Height": "NULL", "TreeID": 31631.0, "Street": "Great Hwy", "SiteOrder": 1.0, "ICOUNT": 1, "LatinName": "Melaleuca nesophila", "AddressNo": 2506.0}},{"geometry": {"type": "Point", "coordinates": [-122.50557273631124, 37.741135082608324]}, "type": "Feature", "id": 27, "properties": {"LocSite": "Sidewalk, Curb side", "DBH": 0.0, "CommonName": "Pink Melaleuca", "Height": "NULL", "TreeID": 31627.0, "Street": "47th Ave", "SiteOrder": 1.0, "ICOUNT": 1, "LatinName": "Melaleuca nesophila", "AddressNo": 2430.0}},{"geometry": {"type": "Point", "coordinates": [-122.50545664039683, 37.73949220760753]}, "type": "Feature", "id": 28, "properties": {"LocSite": "Sidewalk, Curb side", "DBH": 0.0, "CommonName": "Pink Melaleuca", "Height": "NULL", "TreeID": 31628.0, "Street": "47th Ave", "SiteOrder": 1.0, "ICOUNT": 1, "LatinName": "Melaleuca nesophila", "AddressNo": 2518.0}},{"geometry": {"type": "Point", "coordinates": [-122.50454006093307, 37.739981390742955]}, "type": "Feature", "id": 29, "properties": {"LocSite": "Sidewalk, Curb side", "DBH": 0.0, "CommonName": "New Zealand Tea Tree", "Height": "NULL", "TreeID": 31645.0, "Street": "Ulloa St", "SiteOrder": 1.0, "ICOUNT": 4, "LatinName": "New Zealand Tea Tree", "AddressNo": 4500.0}},{"geometry": {"type": "Point", "coordinates": [-122.5045745906039, 37.73997986331543]}, "type": "Feature", "id": 30, "properties": {"LocSite": "Front Yard", "DBH": 0.0, "CommonName": "Tree(s) :", "Height": "NULL", "TreeID": 31646.0, "Street": "Ulloa St", "SiteOrder": 2.0, "ICOUNT": 4, "LatinName": "Tree(s) :", "AddressNo": 4500.0}},{"geometry": {"type": "Point", "coordinates": [-122.50464364997583, 37.739976808429425]}, "type": "Feature", "id": 31, "properties": {"LocSite": "Front Yard", "DBH": 0.0, "CommonName": "Tree(s) :", "Height": "NULL", "TreeID": 31647.0, "Street": "Ulloa St", "SiteOrder": 4.0, "ICOUNT": 4, "LatinName": "Tree(s) :", "AddressNo": 4500.0}},{"geometry": {"type": "Point", "coordinates": [-122.50460912030786, 37.7399783358772]}, "type": "Feature", "id": 32, "properties": {"LocSite": "Front Yard", "DBH": 0.0, "CommonName": "Tree(s) :", "Height": "NULL", "TreeID": 31648.0, "Street": "Ulloa St", "SiteOrder": 3.0, "ICOUNT": 4, "LatinName": "Tree(s) :", "AddressNo": 4500.0}},{"geometry": {"type": "Point", "coordinates": [-122.50355047743243, 37.74036736913241]}, "type": "Feature", "id": 33, "properties": {"LocSite": "Sidewalk, Curb side", "DBH": 0.0, "CommonName": "Hybrid Strawberry Tree", "Height": "NULL", "TreeID": 31625.0, "Street": "45th Ave", "SiteOrder": 1.0, "ICOUNT": 1, "LatinName": "Arbutus 'Marina'", "AddressNo": 2479.0}},{"geometry": {"type": "Point", "coordinates": [-122.49808532548877, 37.73910221835864]}, "type": "Feature", "id": 34, "properties": {"LocSite": "Sidewalk, Curb side", "DBH": 0.0, "CommonName": "New Zealand Xmas Tree", "Height": "NULL", "TreeID": 35220.0, "Street": "40th Ave", "SiteOrder": 1.0, "ICOUNT": 17, "LatinName": "Metrosideros excelsa", "AddressNo": 2559.0}},{"geometry": {"type": "Point", "coordinates": [-122.49808339506933, 37.73907479762534]}, "type": "Feature", "id": 35, "properties": {"LocSite": "Sidewalk, Curb side", "DBH": 0.0, "CommonName": "New Zealand Xmas Tree", "Height": "NULL", "TreeID": 35221.0, "Street": "40th Ave", "SiteOrder": 2.0, "ICOUNT": 17, "LatinName": "Metrosideros excelsa", "AddressNo": 2559.0}},{"geometry": {"type": "Point", "coordinates": [-122.49808146461673, 37.739047376892415]}, "type": "Feature", "id": 36, "properties": {"LocSite": "Sidewalk, Curb side", "DBH": 0.0, "CommonName": "Indian Hawthorn  'Majestic Beau'", "Height": "NULL", "TreeID": 35222.0, "Street": "40th Ave", "SiteOrder": 3.0, "ICOUNT": 17, "LatinName": "Rhaphiolepis \"Majestic Beauty\"", "AddressNo": 2559.0}},{"geometry": {"type": "Point", "coordinates": [-122.49807953420012, 37.73901995615879]}, "type": "Feature", "id": 37, "properties": {"LocSite": "Sidewalk, Curb side", "DBH": 0.0, "CommonName": "Indian Hawthorn  'Majestic Beau'", "Height": "NULL", "TreeID": 35223.0, "Street": "40th Ave", "SiteOrder": 4.0, "ICOUNT": 17, "LatinName": "Rhaphiolepis \"Majestic Beauty\"", "AddressNo": 2559.0}},{"geometry": {"type": "Point", "coordinates": [-122.49806795169586, 37.738855431754324]}, "type": "Feature", "id": 38, "properties": {"LocSite": "Sidewalk, Curb side", "DBH": 0.0, "CommonName": "New Zealand Xmas Tree", "Height": "NULL", "TreeID": 35224.0, "Street": "40th Ave", "SiteOrder": 10.0, "ICOUNT": 17, "LatinName": "Metrosideros excelsa", "AddressNo": 2559.0}},{"geometry": {"type": "Point", "coordinates": [-122.49807760378494, 37.73899253542503]}, "type": "Feature", "id": 39, "properties": {"LocSite": "Sidewalk, Curb side", "DBH": 0.0, "CommonName": "New Zealand Xmas Tree", "Height": "NULL", "TreeID": 35225.0, "Street": "40th Ave", "SiteOrder": 5.0, "ICOUNT": 17, "LatinName": "Metrosideros excelsa", "AddressNo": 2559.0}},{"geometry": {"type": "Point", "coordinates": [-122.49807567337119, 37.73896511469107]}, "type": "Feature", "id": 40, "properties": {"LocSite": "Sidewalk, Curb side", "DBH": 0.0, "CommonName": "New Zealand Xmas Tree", "Height": "NULL", "TreeID": 35226.0, "Street": "40th Ave", "SiteOrder": 6.0, "ICOUNT": 17, "LatinName": "Metrosideros excelsa", "AddressNo": 2559.0}},{"geometry": {"type": "Point", "coordinates": [-122.49807374292429, 37.73893769395755]}, "type": "Feature", "id": 41, "properties": {"LocSite": "Sidewalk, Curb side", "DBH": 0.0, "CommonName": "New Zealand Xmas Tree", "Height": "NULL", "TreeID": 35227.0, "Street": "40th Ave", "SiteOrder": 7.0, "ICOUNT": 17, "LatinName": "Metrosideros excelsa", "AddressNo": 2559.0}},{"geometry": {"type": "Point", "coordinates": [-122.49806988210392, 37.738882852488885]}, "type": "Feature", "id": 42, "properties": {"LocSite": "Sidewalk, Curb side", "DBH": 0.0, "CommonName": "New Zealand Xmas Tree", "Height": "NULL", "TreeID": 35228.0, "Street": "40th Ave", "SiteOrder": 9.0, "ICOUNT": 17, "LatinName": "Metrosideros excelsa", "AddressNo": 2559.0}},{"geometry": {"type": "Point", "coordinates": [-122.49807181251337, 37.7389102732233]}, "type": "Feature", "id": 43, "properties": {"LocSite": "Sidewalk, Curb side", "DBH": 0.0, "CommonName": "New Zealand Xmas Tree", "Height": "NULL", "TreeID": 35229.0, "Street": "40th Ave", "SiteOrder": 8.0, "ICOUNT": 17, "LatinName": "Metrosideros excelsa", "AddressNo": 2559.0}},{"geometry": {"type": "Point", "coordinates": [-122.49806602125466, 37.73882801102017]}, "type": "Feature", "id": 44, "properties": {"LocSite": "Sidewalk, Curb side", "DBH": 0.0, "CommonName": "Swamp Myrtle", "Height": "NULL", "TreeID": 35230.0, "Street": "40th Ave", "SiteOrder": 11.0, "ICOUNT": 17, "LatinName": "Tristaniopsis laurina", "AddressNo": 2559.0}},{"geometry": {"type": "Point", "coordinates": [-122.49766072626683, 37.73560276415954]}, "type": "Feature", "id": 45, "properties": {"LocSite": "Sidewalk, Curb side", "DBH": 0.0, "CommonName": "Sea Urchin Tree", "Height": "NULL", "TreeID": 34948.0, "Street": "40th Ave", "SiteOrder": 1.0, "ICOUNT": 1, "LatinName": "Hakea laurina", "AddressNo": 2746.0}},{"geometry": {"type": "Point", "coordinates": [-122.49667885627504, 37.73386699995246]}, "type": "Feature", "id": 46, "properties": {"LocSite": "Median", "DBH": 3.0, "CommonName": "Leyland Cypress", "Height": "NULL", "TreeID": 19484.0, "Street": "Sloat Blvd", "SiteOrder": 1.0, "ICOUNT": 5, "LatinName": "Hesperotropsis leylandii", "AddressNo": 2100.0}},{"geometry": {"type": "Point", "coordinates": [-122.49671227492492, 37.733874058730244]}, "type": "Feature", "id": 47, "properties": {"LocSite": "Median", "DBH": 3.0, "CommonName": "Bushy Yate", "Height": "NULL", "TreeID": 19485.0, "Street": "Sloat Blvd", "SiteOrder": 2.0, "ICOUNT": 5, "LatinName": "Eucalyptus lehmanni", "AddressNo": 2100.0}},{"geometry": {"type": "Point", "coordinates": [-122.49674569358193, 37.733881117526]}, "type": "Feature", "id": 48, "properties": {"LocSite": "Median", "DBH": 3.0, "CommonName": "Bushy Yate", "Height": "NULL", "TreeID": 19486.0, "Street": "Sloat Blvd", "SiteOrder": 3.0, "ICOUNT": 5, "LatinName": "Eucalyptus lehmanni", "AddressNo": 2100.0}},{"geometry": {"type": "Point", "coordinates": [-122.49677911224454, 37.73388817628481]}, "type": "Feature", "id": 49, "properties": {"LocSite": "Median", "DBH": 3.0, "CommonName": "Bushy Yate", "Height": "NULL", "TreeID": 19487.0, "Street": "Sloat Blvd", "SiteOrder": 4.0, "ICOUNT": 5, "LatinName": "Eucalyptus lehmanni", "AddressNo": 2100.0}},{"geometry": {"type": "Point", "coordinates": [-122.4968125308789, 37.73389523503474]}, "type": "Feature", "id": 50, "properties": {"LocSite": "Median", "DBH": 3.0, "CommonName": "Leyland Cypress", "Height": "NULL", "TreeID": 19488.0, "Street": "Sloat Blvd", "SiteOrder": 5.0, "ICOUNT": 5, "LatinName": "Hesperotropsis leylandii", "AddressNo": 2100.0}},{"geometry": {"type": "Point", "coordinates": [-122.4944890115698, 37.73403098985485]}, "type": "Feature", "id": 51, "properties": {"LocSite": "Median", "DBH": 3.0, "CommonName": "Bushy Yate", "Height": "NULL", "TreeID": 19474.0, "Street": "Sloat Blvd", "SiteOrder": 1.0, "ICOUNT": 10, "LatinName": "Eucalyptus lehmanni", "AddressNo": 1900.0}},{"geometry": {"type": "Point", "coordinates": [-122.49452339648771, 37.73402807346522]}, "type": "Feature", "id": 52, "properties": {"LocSite": "Median", "DBH": 6.0, "CommonName": "Bushy Yate", "Height": "NULL", "TreeID": 19475.0, "Street": "Sloat Blvd", "SiteOrder": 2.0, "ICOUNT": 10, "LatinName": "Eucalyptus lehmanni", "AddressNo": 1900.0}},{"geometry": {"type": "Point", "coordinates": [-122.49455778140289, 37.734025157065496]}, "type": "Feature", "id": 53, "properties": {"LocSite": "Median", "DBH": 3.0, "CommonName": "Bushy Yate", "Height": "NULL", "TreeID": 19476.0, "Street": "Sloat Blvd", "SiteOrder": 3.0, "ICOUNT": 10, "LatinName": "Eucalyptus lehmanni", "AddressNo": 1900.0}},{"geometry": {"type": "Point", "coordinates": [-122.49459216631536, 37.73402224065579]}, "type": "Feature", "id": 54, "properties": {"LocSite": "Median", "DBH": 3.0, "CommonName": "Bushy Yate", "Height": "NULL", "TreeID": 19477.0, "Street": "Sloat Blvd", "SiteOrder": 4.0, "ICOUNT": 10, "LatinName": "Eucalyptus lehmanni", "AddressNo": 1900.0}},{"geometry": {"type": "Point", "coordinates": [-122.49462655122515, 37.73401932423602]}, "type": "Feature", "id": 55, "properties": {"LocSite": "Median", "DBH": 3.0, "CommonName": "Bushy Yate", "Height": "NULL", "TreeID": 19478.0, "Street": "Sloat Blvd", "SiteOrder": 5.0, "ICOUNT": 10, "LatinName": "Eucalyptus lehmanni", "AddressNo": 1900.0}},{"geometry": {"type": "Point", "coordinates": [-122.49466093613222, 37.734016407806216]}, "type": "Feature", "id": 56, "properties": {"LocSite": "Median", "DBH": 3.0, "CommonName": "Bushy Yate", "Height": "NULL", "TreeID": 19479.0, "Street": "Sloat Blvd", "SiteOrder": 6.0, "ICOUNT": 10, "LatinName": "Eucalyptus lehmanni", "AddressNo": 1900.0}},{"geometry": {"type": "Point", "coordinates": [-122.49469532100204, 37.73401349136697]}, "type": "Feature", "id": 57, "properties": {"LocSite": "Median", "DBH": 3.0, "CommonName": "Bushy Yate", "Height": "NULL", "TreeID": 19480.0, "Street": "Sloat Blvd", "SiteOrder": 7.0, "ICOUNT": 10, "LatinName": "Eucalyptus lehmanni", "AddressNo": 1900.0}},{"geometry": {"type": "Point", "coordinates": [-122.49472970590371, 37.73401057491712]}, "type": "Feature", "id": 58, "properties": {"LocSite": "Median", "DBH": 3.0, "CommonName": "Bushy Yate", "Height": "NULL", "TreeID": 19481.0, "Street": "Sloat Blvd", "SiteOrder": 8.0, "ICOUNT": 10, "LatinName": "Eucalyptus lehmanni", "AddressNo": 1900.0}},{"geometry": {"type": "Point", "coordinates": [-122.49476409080275, 37.73400765845721]}, "type": "Feature", "id": 59, "properties": {"LocSite": "Median", "DBH": 3.0, "CommonName": "Bushy Yate", "Height": "NULL", "TreeID": 19482.0, "Street": "Sloat Blvd", "SiteOrder": 9.0, "ICOUNT": 10, "LatinName": "Eucalyptus lehmanni", "AddressNo": 1900.0}},{"geometry": {"type": "Point", "coordinates": [-122.49479847569903, 37.73400474198727]}, "type": "Feature", "id": 60, "properties": {"LocSite": "Median", "DBH": 12.0, "CommonName": "Leyland Cypress", "Height": "NULL", "TreeID": 19483.0, "Street": "Sloat Blvd", "SiteOrder": 10.0, "ICOUNT": 10, "LatinName": "Hesperotropsis leylandii", "AddressNo": 1900.0}},{"geometry": {"type": "Point", "coordinates": [-122.49339535655199, 37.73408056285465]}, "type": "Feature", "id": 61, "properties": {"LocSite": "Median", "DBH": 3.0, "CommonName": "Bushy Yate", "Height": "NULL", "TreeID": 19467.0, "Street": "Sloat Blvd", "SiteOrder": 1.0, "ICOUNT": 7, "LatinName": "Eucalyptus lehmanni", "AddressNo": 1800.0}},{"geometry": {"type": "Point", "coordinates": [-122.49342988004081, 37.73407898700008]}, "type": "Feature", "id": 62, "properties": {"LocSite": "Median", "DBH": 6.0, "CommonName": "Bushy Yate", "Height": "NULL", "TreeID": 19468.0, "Street": "Sloat Blvd", "SiteOrder": 2.0, "ICOUNT": 7, "LatinName": "Eucalyptus lehmanni", "AddressNo": 1800.0}},{"geometry": {"type": "Point", "coordinates": [-122.49346440352814, 37.734077411135395]}, "type": "Feature", "id": 63, "properties": {"LocSite": "Median", "DBH": 12.0, "CommonName": "Bushy Yate", "Height": "NULL", "TreeID": 19469.0, "Street": "Sloat Blvd", "SiteOrder": 3.0, "ICOUNT": 7, "LatinName": "Eucalyptus lehmanni", "AddressNo": 1800.0}},{"geometry": {"type": "Point", "coordinates": [-122.49349892701399, 37.73407583526058]}, "type": "Feature", "id": 64, "properties": {"LocSite": "Median", "DBH": 6.0, "CommonName": "Bushy Yate", "Height": "NULL", "TreeID": 19470.0, "Street": "Sloat Blvd", "SiteOrder": 4.0, "ICOUNT": 7, "LatinName": "Eucalyptus lehmanni", "AddressNo": 1800.0}},{"geometry": {"type": "Point", "coordinates": [-122.49353345049839, 37.73407425937567]}, "type": "Feature", "id": 65, "properties": {"LocSite": "Median", "DBH": 6.0, "CommonName": "Bushy Yate", "Height": "NULL", "TreeID": 19471.0, "Street": "Sloat Blvd", "SiteOrder": 5.0, "ICOUNT": 7, "LatinName": "Eucalyptus lehmanni", "AddressNo": 1800.0}},{"geometry": {"type": "Point", "coordinates": [-122.4935679739813, 37.734072683480626]}, "type": "Feature", "id": 66, "properties": {"LocSite": "Median", "DBH": 3.0, "CommonName": "Bushy Yate", "Height": "NULL", "TreeID": 19472.0, "Street": "Sloat Blvd", "SiteOrder": 6.0, "ICOUNT": 7, "LatinName": "Eucalyptus lehmanni", "AddressNo": 1800.0}},{"geometry": {"type": "Point", "coordinates": [-122.49360249746277, 37.73407110757548]}, "type": "Feature", "id": 67, "properties": {"LocSite": "Median", "DBH": 3.0, "CommonName": "Bushy Yate", "Height": "NULL", "TreeID": 19473.0, "Street": "Sloat Blvd", "SiteOrder": 7.0, "ICOUNT": 7, "LatinName": "Eucalyptus lehmanni", "AddressNo": 1800.0}},{"geometry": {"type": "Point", "coordinates": [-122.49456109833932, 37.73478633598514]}, "type": "Feature", "id": 68, "properties": {"LocSite": "Sidewalk, Curb side", "DBH": 12.0, "CommonName": "Acacia Spp", "Height": "NULL", "TreeID": 800.0, "Street": "37th Ave", "SiteOrder": 1.0, "ICOUNT": 3, "LatinName": "Acacia spp", "AddressNo": 2801.0}},{"geometry": {"type": "Point", "coordinates": [-122.49455915589367, 37.734758915786564]}, "type": "Feature", "id": 69, "properties": {"LocSite": "Sidewalk, Curb side", "DBH": 12.0, "CommonName": "Acacia Spp", "Height": "NULL", "TreeID": 801.0, "Street": "37th Ave", "SiteOrder": 2.0, "ICOUNT": 3, "LatinName": "Acacia spp", "AddressNo": 2801.0}},{"geometry": {"type": "Point", "coordinates": [-122.49455721344867, 37.73473149556037]}, "type": "Feature", "id": 70, "properties": {"LocSite": "Sidewalk, Curb side", "DBH": 12.0, "CommonName": "Acacia Spp", "Height": "NULL", "TreeID": 802.0, "Street": "37th Ave", "SiteOrder": 3.0, "ICOUNT": 3, "LatinName": "Acacia spp", "AddressNo": 2801.0}},{"geometry": {"type": "Point", "coordinates": [-122.49411041803229, 37.73496764676892]}, "type": "Feature", "id": 71, "properties": {"LocSite": "Sidewalk, Curb side", "DBH": 36.0, "CommonName": "Monterey Cypress", "Height": "NULL", "TreeID": 21500.0, "Street": "Sunset Blvd", "SiteOrder": 1.0, "ICOUNT": 11, "LatinName": "Cupressus macrocarpa", "AddressNo": 2800.0}},{"geometry": {"type": "Point", "coordinates": [-122.49411234611942, 37.734995067626336]}, "type": "Feature", "id": 72, "properties": {"LocSite": "Sidewalk, Curb side", "DBH": 42.0, "CommonName": "Monterey Cypress", "Height": "NULL", "TreeID": 21501.0, "Street": "Sunset Blvd", "SiteOrder": 2.0, "ICOUNT": 11, "LatinName": "Cupressus macrocarpa", "AddressNo": 2800.0}},{"geometry": {"type": "Point", "coordinates": [-122.49411427417266, 37.73502248845668]}, "type": "Feature", "id": 73, "properties": {"LocSite": "Sidewalk, Curb side", "DBH": 12.0, "CommonName": "Blackwood Acacia", "Height": "NULL", "TreeID": 21502.0, "Street": "Sunset Blvd", "SiteOrder": 3.0, "ICOUNT": 11, "LatinName": "Acacia melanoxylon", "AddressNo": 2800.0}},{"geometry": {"type": "Point", "coordinates": [-122.49411620226262, 37.73504990931376]}, "type": "Feature", "id": 74, "properties": {"LocSite": "Sidewalk, Curb side", "DBH": 6.0, "CommonName": "Monterey Cypress", "Height": "NULL", "TreeID": 21503.0, "Street": "Sunset Blvd", "SiteOrder": 4.0, "ICOUNT": 11, "LatinName": "Cupressus macrocarpa", "AddressNo": 2800.0}},{"geometry": {"type": "Point", "coordinates": [-122.49411813031945, 37.73507733017126]}, "type": "Feature", "id": 75, "properties": {"LocSite": "Sidewalk, Curb side", "DBH": 36.0, "CommonName": "Monterey Cypress", "Height": "NULL", "TreeID": 21504.0, "Street": "Sunset Blvd", "SiteOrder": 5.0, "ICOUNT": 11, "LatinName": "Cupressus macrocarpa", "AddressNo": 2800.0}},{"geometry": {"type": "Point", "coordinates": [-122.49412005841225, 37.735104751028]}, "type": "Feature", "id": 76, "properties": {"LocSite": "Sidewalk, Curb side", "DBH": 12.0, "CommonName": "Stump", "Height": "NULL", "TreeID": 21505.0, "Street": "Sunset Blvd", "SiteOrder": 6.0, "ICOUNT": 11, "LatinName": "Stump", "AddressNo": 2800.0}},{"geometry": {"type": "Point", "coordinates": [-122.4941219864712, 37.735132171857735]}, "type": "Feature", "id": 77, "properties": {"LocSite": "Sidewalk, Curb side", "DBH": 36.0, "CommonName": "Stump", "Height": "NULL", "TreeID": 21506.0, "Street": "Sunset Blvd", "SiteOrder": 7.0, "ICOUNT": 11, "LatinName": "Stump", "AddressNo": 2800.0}},{"geometry": {"type": "Point", "coordinates": [-122.49412391456686, 37.73515959271418]}, "type": "Feature", "id": 78, "properties": {"LocSite": "Sidewalk, Curb side", "DBH": 42.0, "CommonName": "Monterey Pine", "Height": "NULL", "TreeID": 21507.0, "Street": "Sunset Blvd", "SiteOrder": 8.0, "ICOUNT": 11, "LatinName": "Pinus radiata", "AddressNo": 2800.0}},{"geometry": {"type": "Point", "coordinates": [-122.49412584262937, 37.735187013571064]}, "type": "Feature", "id": 79, "properties": {"LocSite": "Sidewalk, Curb side", "DBH": 24.0, "CommonName": "Monterey Pine", "Height": "NULL", "TreeID": 21508.0, "Street": "Sunset Blvd", "SiteOrder": 9.0, "ICOUNT": 11, "LatinName": "Pinus radiata", "AddressNo": 2800.0}},{"geometry": {"type": "Point", "coordinates": [-122.49412777072789, 37.735214434427185]}, "type": "Feature", "id": 80, "properties": {"LocSite": "Sidewalk, Curb side", "DBH": 36.0, "CommonName": "Monterey Cypress", "Height": "NULL", "TreeID": 21509.0, "Street": "Sunset Blvd", "SiteOrder": 10.0, "ICOUNT": 11, "LatinName": "Cupressus macrocarpa", "AddressNo": 2800.0}},{"geometry": {"type": "Point", "coordinates": [-122.49412969879249, 37.73524185525632]}, "type": "Feature", "id": 81, "properties": {"LocSite": "Sidewalk, Curb side", "DBH": 42.0, "CommonName": "Monterey Pine", "Height": "NULL", "TreeID": 21510.0, "Street": "Sunset Blvd", "SiteOrder": 11.0, "ICOUNT": 11, "LatinName": "Pinus radiata", "AddressNo": 2800.0}},{"geometry": {"type": "Point", "coordinates": [-122.49412441411013, 37.73516682043826]}, "type": "Feature", "id": 82, "properties": {"LocSite": "Sidewalk, Curb side", "DBH": 48.0, "CommonName": "Stump (use Grinder)", "Height": "NULL", "TreeID": 21478.0, "Street": "Sunset Blvd", "SiteOrder": 1.0, "ICOUNT": 22, "LatinName": "Stump (use Grinder)", "AddressNo": 2792.0}},{"geometry": {"type": "Point", "coordinates": [-122.49412507757822, 37.73519427896054]}, "type": "Feature", "id": 83, "properties": {"LocSite": "Sidewalk, Curb side", "DBH": 48.0, "CommonName": "Monterey Cypress", "Height": "NULL", "TreeID": 21479.0, "Street": "Sunset Blvd", "SiteOrder": 2.0, "ICOUNT": 22, "LatinName": "Cupressus macrocarpa", "AddressNo": 2792.0}},{"geometry": {"type": "Point", "coordinates": [-122.49412574108139, 37.735221737482156]}, "type": "Feature", "id": 84, "properties": {"LocSite": "Sidewalk, Curb side", "DBH": 48.0, "CommonName": "Monterey Pine", "Height": "NULL", "TreeID": 21480.0, "Street": "Sunset Blvd", "SiteOrder": 3.0, "ICOUNT": 22, "LatinName": "Pinus radiata", "AddressNo": 2792.0}},{"geometry": {"type": "Point", "coordinates": [-122.49412640454973, 37.73524919597674]}, "type": "Feature", "id": 85, "properties": {"LocSite": "Median", "DBH": 10.0, "CommonName": "Blackwood Acacia", "Height": "20", "TreeID": 21481.0, "Street": "Sunset Blvd", "SiteOrder": 4.0, "ICOUNT": 22, "LatinName": "Acacia melanoxylon", "AddressNo": 2792.0}},{"geometry": {"type": "Point", "coordinates": [-122.49412706801931, 37.73527665449865]}, "type": "Feature", "id": 86, "properties": {"LocSite": "Sidewalk, Curb side", "DBH": 12.0, "CommonName": "Blackwood Acacia", "Height": "25", "TreeID": 21482.0, "Street": "Sunset Blvd", "SiteOrder": 5.0, "ICOUNT": 22, "LatinName": "Acacia melanoxylon", "AddressNo": 2792.0}},{"geometry": {"type": "Point", "coordinates": [-122.49412773148939, 37.73530411302045]}, "type": "Feature", "id": 87, "properties": {"LocSite": "Sidewalk, Curb side", "DBH": 48.0, "CommonName": "Monterey Cypress", "Height": "NULL", "TreeID": 21483.0, "Street": "Sunset Blvd", "SiteOrder": 6.0, "ICOUNT": 22, "LatinName": "Cupressus macrocarpa", "AddressNo": 2792.0}},{"geometry": {"type": "Point", "coordinates": [-122.4941283949945, 37.735331571541536]}, "type": "Feature", "id": 88, "properties": {"LocSite": "Sidewalk, Curb side", "DBH": 6.0, "CommonName": "Monterey Pine", "Height": "NULL", "TreeID": 21484.0, "Street": "Sunset Blvd", "SiteOrder": 7.0, "ICOUNT": 22, "LatinName": "Pinus radiata", "AddressNo": 2792.0}},{"geometry": {"type": "Point", "coordinates": [-122.49412905846484, 37.735359030035625]}, "type": "Feature", "id": 89, "properties": {"LocSite": "Sidewalk, Curb side", "DBH": 12.0, "CommonName": "Monterey Pine", "Height": "NULL", "TreeID": 21485.0, "Street": "Sunset Blvd", "SiteOrder": 8.0, "ICOUNT": 22, "LatinName": "Pinus radiata", "AddressNo": 2792.0}},{"geometry": {"type": "Point", "coordinates": [-122.49412972193635, 37.73538648855705]}, "type": "Feature", "id": 90, "properties": {"LocSite": "Sidewalk, Curb side", "DBH": 6.0, "CommonName": "Monterey Pine", "Height": "NULL", "TreeID": 21486.0, "Street": "Sunset Blvd", "SiteOrder": 9.0, "ICOUNT": 22, "LatinName": "Pinus radiata", "AddressNo": 2792.0}},{"geometry": {"type": "Point", "coordinates": [-122.49413038544296, 37.73541394707774]}, "type": "Feature", "id": 91, "properties": {"LocSite": "Sidewalk, Curb side", "DBH": 6.0, "CommonName": "Monterey Pine", "Height": "NULL", "TreeID": 21487.0, "Street": "Sunset Blvd", "SiteOrder": 10.0, "ICOUNT": 22, "LatinName": "Pinus radiata", "AddressNo": 2792.0}},{"geometry": {"type": "Point", "coordinates": [-122.49413104891549, 37.735441405598884]}, "type": "Feature", "id": 92, "properties": {"LocSite": "Sidewalk, Curb side", "DBH": 48.0, "CommonName": "Monterey Pine", "Height": "NULL", "TreeID": 21488.0, "Street": "Sunset Blvd", "SiteOrder": 11.0, "ICOUNT": 22, "LatinName": "Pinus radiata", "AddressNo": 2792.0}},{"geometry": {"type": "Point", "coordinates": [-122.49413171238777, 37.73546886409247]}, "type": "Feature", "id": 93, "properties": {"LocSite": "Sidewalk, Curb side", "DBH": 48.0, "CommonName": "Monterey Pine", "Height": "NULL", "TreeID": 21489.0, "Street": "Sunset Blvd", "SiteOrder": 12.0, "ICOUNT": 22, "LatinName": "Pinus radiata", "AddressNo": 2792.0}},{"geometry": {"type": "Point", "coordinates": [-122.49413237586126, 37.735496322613336]}, "type": "Feature", "id": 94, "properties": {"LocSite": "Sidewalk, Curb side", "DBH": 3.0, "CommonName": "Pine Spp", "Height": "NULL", "TreeID": 21490.0, "Street": "Sunset Blvd", "SiteOrder": 13.0, "ICOUNT": 22, "LatinName": "Pinus Spp", "AddressNo": 2792.0}},{"geometry": {"type": "Point", "coordinates": [-122.49413303936979, 37.735523781133566]}, "type": "Feature", "id": 95, "properties": {"LocSite": "Sidewalk, Curb side", "DBH": 48.0, "CommonName": "Canary Island Pine", "Height": "NULL", "TreeID": 21491.0, "Street": "Sunset Blvd", "SiteOrder": 14.0, "ICOUNT": 22, "LatinName": "Pinus canariensis", "AddressNo": 2792.0}},{"geometry": {"type": "Point", "coordinates": [-122.49413370284428, 37.73555123965417]}, "type": "Feature", "id": 96, "properties": {"LocSite": "Sidewalk, Curb side", "DBH": 12.0, "CommonName": "Monterey Pine", "Height": "NULL", "TreeID": 21492.0, "Street": "Sunset Blvd", "SiteOrder": 15.0, "ICOUNT": 22, "LatinName": "Pinus radiata", "AddressNo": 2792.0}},{"geometry": {"type": "Point", "coordinates": [-122.49413436631852, 37.73557869814724]}, "type": "Feature", "id": 97, "properties": {"LocSite": "Sidewalk, Curb side", "DBH": 0.0, "CommonName": "Planting Site", "Height": "NULL", "TreeID": 21493.0, "Street": "Sunset Blvd", "SiteOrder": 16.0, "ICOUNT": 22, "LatinName": "Planting site", "AddressNo": 2792.0}},{"geometry": {"type": "Point", "coordinates": [-122.49413436631852, 37.73557869814724]}, "type": "Feature", "id": 98, "properties": {"LocSite": "Sidewalk, Curb side", "DBH": 0.0, "CommonName": "Planting Site", "Height": "NULL", "TreeID": 21494.0, "Street": "Sunset Blvd", "SiteOrder": 16.0, "ICOUNT": 22, "LatinName": "Planting site", "AddressNo": 2792.0}},{"geometry": {"type": "Point", "coordinates": [-122.49413436631852, 37.73557869814724]}, "type": "Feature", "id": 99, "properties": {"LocSite": "Sidewalk, Curb side", "DBH": 18.0, "CommonName": "Sycamore, London Plane", "Height": "NULL", "TreeID": 21495.0, "Street": "Sunset Blvd", "SiteOrder": 16.0, "ICOUNT": 22, "LatinName": "Platanus x hispanica", "AddressNo": 2792.0}},{"geometry": {"type": "Point", "coordinates": [-122.49413502982857, 37.735606156667025]}, "type": "Feature", "id": 100, "properties": {"LocSite": "Sidewalk, Curb side", "DBH": 48.0, "CommonName": "Monterey Pine", "Height": "NULL", "TreeID": 21496.0, "Street": "Sunset Blvd", "SiteOrder": 17.0, "ICOUNT": 22, "LatinName": "Pinus radiata", "AddressNo": 2792.0}},{"geometry": {"type": "Point", "coordinates": [-122.49413569330451, 37.73563361518727]}, "type": "Feature", "id": 101, "properties": {"LocSite": "Sidewalk, Curb side", "DBH": 48.0, "CommonName": "Monterey Pine", "Height": "NULL", "TreeID": 21497.0, "Street": "Sunset Blvd", "SiteOrder": 18.0, "ICOUNT": 22, "LatinName": "Pinus radiata", "AddressNo": 2792.0}},{"geometry": {"type": "Point", "coordinates": [-122.49413635678097, 37.7356610737074]}, "type": "Feature", "id": 102, "properties": {"LocSite": "Sidewalk, Curb side", "DBH": 12.0, "CommonName": "Monterey Pine", "Height": "NULL", "TreeID": 21498.0, "Street": "Sunset Blvd", "SiteOrder": 19.0, "ICOUNT": 22, "LatinName": "Pinus radiata", "AddressNo": 2792.0}},{"geometry": {"type": "Point", "coordinates": [-122.49413702025714, 37.73568853219994]}, "type": "Feature", "id": 103, "properties": {"LocSite": "Sidewalk, Curb side", "DBH": 48.0, "CommonName": "Monterey Pine", "Height": "NULL", "TreeID": 21499.0, "Street": "Sunset Blvd", "SiteOrder": 20.0, "ICOUNT": 22, "LatinName": "Pinus radiata", "AddressNo": 2792.0}},{"geometry": {"type": "Point", "coordinates": [-122.4937799642394, 37.734979221440675]}, "type": "Feature", "id": 104, "properties": {"LocSite": "Sidewalk, Curb side", "DBH": 48.0, "CommonName": "Monterey Cypress", "Height": "NULL", "TreeID": 21511.0, "Street": "Sunset Blvd", "SiteOrder": 1.0, "ICOUNT": 12, "LatinName": "Cupressus macrocarpa", "AddressNo": 2801.0}},{"geometry": {"type": "Point", "coordinates": [-122.49377804529223, 37.73495180017796]}, "type": "Feature", "id": 105, "properties": {"LocSite": "Sidewalk, Curb side", "DBH": 48.0, "CommonName": "Monterey Cypress", "Height": "NULL", "TreeID": 21512.0, "Street": "Sunset Blvd", "SiteOrder": 2.0, "ICOUNT": 12, "LatinName": "Cupressus macrocarpa", "AddressNo": 2801.0}},{"geometry": {"type": "Point", "coordinates": [-122.49377612638179, 37.73492437894194]}, "type": "Feature", "id": 106, "properties": {"LocSite": "Sidewalk, Curb side", "DBH": 3.0, "CommonName": "Stump", "Height": "NULL", "TreeID": 21513.0, "Street": "Sunset Blvd", "SiteOrder": 3.0, "ICOUNT": 12, "LatinName": "Stump", "AddressNo": 2801.0}},{"geometry": {"type": "Point", "coordinates": [-122.49377420743751, 37.73489695767895]}, "type": "Feature", "id": 107, "properties": {"LocSite": "Sidewalk, Curb side", "DBH": 3.0, "CommonName": "Stump", "Height": "NULL", "TreeID": 21514.0, "Street": "Sunset Blvd", "SiteOrder": 4.0, "ICOUNT": 12, "LatinName": "Stump", "AddressNo": 2801.0}},{"geometry": {"type": "Point", "coordinates": [-122.49377228852914, 37.73486953641522]}, "type": "Feature", "id": 108, "properties": {"LocSite": "Sidewalk, Curb side", "DBH": 48.0, "CommonName": "Stump", "Height": "NULL", "TreeID": 21515.0, "Street": "Sunset Blvd", "SiteOrder": 5.0, "ICOUNT": 12, "LatinName": "Stump", "AddressNo": 2801.0}},{"geometry": {"type": "Point", "coordinates": [-122.49377036958766, 37.73484211515186]}, "type": "Feature", "id": 109, "properties": {"LocSite": "Sidewalk, Curb side", "DBH": 48.0, "CommonName": "Monterey Pine", "Height": "NULL", "TreeID": 21516.0, "Street": "Sunset Blvd", "SiteOrder": 6.0, "ICOUNT": 12, "LatinName": "Pinus radiata", "AddressNo": 2801.0}},{"geometry": {"type": "Point", "coordinates": [-122.49376845068286, 37.73481469391525]}, "type": "Feature", "id": 110, "properties": {"LocSite": "Sidewalk, Curb side", "DBH": 48.0, "CommonName": "Monterey Cypress", "Height": "NULL", "TreeID": 21517.0, "Street": "Sunset Blvd", "SiteOrder": 7.0, "ICOUNT": 12, "LatinName": "Cupressus macrocarpa", "AddressNo": 2801.0}},{"geometry": {"type": "Point", "coordinates": [-122.49376653174423, 37.734787272651594]}, "type": "Feature", "id": 111, "properties": {"LocSite": "Sidewalk, Curb side", "DBH": 3.0, "CommonName": "Stump", "Height": "NULL", "TreeID": 21518.0, "Street": "Sunset Blvd", "SiteOrder": 8.0, "ICOUNT": 12, "LatinName": "Stump", "AddressNo": 2801.0}},{"geometry": {"type": "Point", "coordinates": [-122.493764612807, 37.73475985138781]}, "type": "Feature", "id": 112, "properties": {"LocSite": "Sidewalk, Curb side", "DBH": 48.0, "CommonName": "Monterey Cypress", "Height": "NULL", "TreeID": 21519.0, "Street": "Sunset Blvd", "SiteOrder": 9.0, "ICOUNT": 12, "LatinName": "Cupressus macrocarpa", "AddressNo": 2801.0}},{"geometry": {"type": "Point", "coordinates": [-122.49376269390648, 37.73473243015075]}, "type": "Feature", "id": 113, "properties": {"LocSite": "Sidewalk, Curb side", "DBH": 48.0, "CommonName": "Monterey Cypress", "Height": "NULL", "TreeID": 21520.0, "Street": "Sunset Blvd", "SiteOrder": 10.0, "ICOUNT": 12, "LatinName": "Cupressus macrocarpa", "AddressNo": 2801.0}},{"geometry": {"type": "Point", "coordinates": [-122.49376077497205, 37.73470500888663]}, "type": "Feature", "id": 114, "properties": {"LocSite": "Sidewalk, Curb side", "DBH": 48.0, "CommonName": "Monterey Cypress", "Height": "NULL", "TreeID": 21521.0, "Street": "Sunset Blvd", "SiteOrder": 11.0, "ICOUNT": 12, "LatinName": "Cupressus macrocarpa", "AddressNo": 2801.0}},{"geometry": {"type": "Point", "coordinates": [-122.49375885607363, 37.73467758762178]}, "type": "Feature", "id": 115, "properties": {"LocSite": "Sidewalk, Curb side", "DBH": 48.0, "CommonName": "Monterey Cypress", "Height": "NULL", "TreeID": 21522.0, "Street": "Sunset Blvd", "SiteOrder": 12.0, "ICOUNT": 12, "LatinName": "Cupressus macrocarpa", "AddressNo": 2801.0}},{"geometry": {"type": "Point", "coordinates": [-122.49350465116018, 37.73483167719466]}, "type": "Feature", "id": 116, "properties": {"LocSite": "Sidewalk, Curb side", "DBH": 18.0, "CommonName": "Acacia Spp", "Height": "NULL", "TreeID": 761.0, "Street": "36th Ave", "SiteOrder": 1.0, "ICOUNT": 3, "LatinName": "Acacia spp", "AddressNo": 2801.0}},{"geometry": {"type": "Point", "coordinates": [-122.49350266094444, 37.734804259139736]}, "type": "Feature", "id": 117, "properties": {"LocSite": "Sidewalk, Curb side", "DBH": 12.0, "CommonName": "Acacia Spp", "Height": "NULL", "TreeID": 762.0, "Street": "36th Ave", "SiteOrder": 2.0, "ICOUNT": 3, "LatinName": "Acacia spp", "AddressNo": 2801.0}},{"geometry": {"type": "Point", "coordinates": [-122.49350067073019, 37.73477684108467]}, "type": "Feature", "id": 118, "properties": {"LocSite": "Sidewalk, Curb side", "DBH": 12.0, "CommonName": "Acacia Spp", "Height": "NULL", "TreeID": 763.0, "Street": "36th Ave", "SiteOrder": 3.0, "ICOUNT": 3, "LatinName": "Acacia spp", "AddressNo": 2801.0}},{"geometry": {"type": "Point", "coordinates": [-122.4946865280485, 37.73655217073951]}, "type": "Feature", "id": 119, "properties": {"LocSite": "Sidewalk, Curb side", "DBH": 24.0, "CommonName": "Acacia Spp", "Height": "NULL", "TreeID": 798.0, "Street": "37th Ave", "SiteOrder": 1.0, "ICOUNT": 2, "LatinName": "Acacia spp", "AddressNo": 2701.0}},{"geometry": {"type": "Point", "coordinates": [-122.49468458025888, 37.73652475077724]}, "type": "Feature", "id": 120, "properties": {"LocSite": "Sidewalk, Curb side", "DBH": 3.0, "CommonName": "Acacia Spp", "Height": "NULL", "TreeID": 799.0, "Street": "37th Ave", "SiteOrder": 2.0, "ICOUNT": 2, "LatinName": "Acacia spp", "AddressNo": 2701.0}},{"geometry": {"type": "Point", "coordinates": [-122.4942378809981, 37.73677897652055]}, "type": "Feature", "id": 121, "properties": {"LocSite": "Sidewalk, Curb side", "DBH": 48.0, "CommonName": "Stump", "Height": "NULL", "TreeID": 21399.0, "Street": "Sunset Blvd", "SiteOrder": 1.0, "ICOUNT": 43, "LatinName": "Stump", "AddressNo": 2692.0}},{"geometry": {"type": "Point", "coordinates": [-122.4942397606376, 37.73680639948031]}, "type": "Feature", "id": 122, "properties": {"LocSite": "Median", "DBH": 24.0, "CommonName": "Monterey Pine", "Height": "60", "TreeID": 21400.0, "Street": "Sunset Blvd", "SiteOrder": 2.0, "ICOUNT": 43, "LatinName": "Pinus radiata", "AddressNo": 2692.0}},{"geometry": {"type": "Point", "coordinates": [-122.49424164027845, 37.73683382243992]}, "type": "Feature", "id": 123, "properties": {"LocSite": "Sidewalk, Curb side", "DBH": 3.0, "CommonName": "Peppermint Willow", "Height": "NULL", "TreeID": 21401.0, "Street": "Sunset Blvd", "SiteOrder": 3.0, "ICOUNT": 43, "LatinName": "Agonis flexuosa", "AddressNo": 2692.0}},{"geometry": {"type": "Point", "coordinates": [-122.49424351992143, 37.73686124542682]}, "type": "Feature", "id": 124, "properties": {"LocSite": "Sidewalk, Curb side", "DBH": 48.0, "CommonName": "Monterey Pine", "Height": "NULL", "TreeID": 21402.0, "Street": "Sunset Blvd", "SiteOrder": 4.0, "ICOUNT": 43, "LatinName": "Pinus radiata", "AddressNo": 2692.0}},{"geometry": {"type": "Point", "coordinates": [-122.49424539956507, 37.736888668386115]}, "type": "Feature", "id": 125, "properties": {"LocSite": "Sidewalk, Curb side", "DBH": 3.0, "CommonName": "Golden Wattle", "Height": "NULL", "TreeID": 21403.0, "Street": "Sunset Blvd", "SiteOrder": 5.0, "ICOUNT": 43, "LatinName": "Acacia longifolia", "AddressNo": 2692.0}},{"geometry": {"type": "Point", "coordinates": [-122.49424727921007, 37.73691609134524]}, "type": "Feature", "id": 126, "properties": {"LocSite": "Sidewalk, Curb side", "DBH": 6.0, "CommonName": "Monterey Pine", "Height": "NULL", "TreeID": 21404.0, "Street": "Sunset Blvd", "SiteOrder": 6.0, "ICOUNT": 43, "LatinName": "Pinus radiata", "AddressNo": 2692.0}},{"geometry": {"type": "Point", "coordinates": [-122.4942491588219, 37.736943514304826]}, "type": "Feature", "id": 127, "properties": {"LocSite": "Sidewalk, Curb side", "DBH": 6.0, "CommonName": "Monterey Pine", "Height": "NULL", "TreeID": 21405.0, "Street": "Sunset Blvd", "SiteOrder": 7.0, "ICOUNT": 43, "LatinName": "Pinus radiata", "AddressNo": 2692.0}},{"geometry": {"type": "Point", "coordinates": [-122.4942510384697, 37.736970937263656]}, "type": "Feature", "id": 128, "properties": {"LocSite": "Sidewalk, Curb side", "DBH": 6.0, "CommonName": "Monterey Pine", "Height": "NULL", "TreeID": 21406.0, "Street": "Sunset Blvd", "SiteOrder": 8.0, "ICOUNT": 43, "LatinName": "Pinus radiata", "AddressNo": 2692.0}},{"geometry": {"type": "Point", "coordinates": [-122.4942529181196, 37.736998360249785]}, "type": "Feature", "id": 129, "properties": {"LocSite": "Sidewalk, Curb side", "DBH": 6.0, "CommonName": "Monterey Pine", "Height": "NULL", "TreeID": 21407.0, "Street": "Sunset Blvd", "SiteOrder": 9.0, "ICOUNT": 43, "LatinName": "Pinus radiata", "AddressNo": 2692.0}},{"geometry": {"type": "Point", "coordinates": [-122.4942547977702, 37.7370257832083]}, "type": "Feature", "id": 130, "properties": {"LocSite": "Sidewalk, Curb side", "DBH": 3.0, "CommonName": "Other", "Height": "NULL", "TreeID": 21408.0, "Street": "Sunset Blvd", "SiteOrder": 10.0, "ICOUNT": 43, "LatinName": "Other", "AddressNo": 2692.0}},{"geometry": {"type": "Point", "coordinates": [-122.49425667742217, 37.7370532061667]}, "type": "Feature", "id": 131, "properties": {"LocSite": "Sidewalk, Curb side", "DBH": 3.0, "CommonName": "Other", "Height": "NULL", "TreeID": 21409.0, "Street": "Sunset Blvd", "SiteOrder": 11.0, "ICOUNT": 43, "LatinName": "Other", "AddressNo": 2692.0}},{"geometry": {"type": "Point", "coordinates": [-122.49425855707548, 37.7370806291249]}, "type": "Feature", "id": 132, "properties": {"LocSite": "Sidewalk, Curb side", "DBH": 18.0, "CommonName": "Monterey Cypress", "Height": "NULL", "TreeID": 21410.0, "Street": "Sunset Blvd", "SiteOrder": 12.0, "ICOUNT": 43, "LatinName": "Cupressus macrocarpa", "AddressNo": 2692.0}},{"geometry": {"type": "Point", "coordinates": [-122.49426043673019, 37.737108052082945]}, "type": "Feature", "id": 133, "properties": {"LocSite": "Sidewalk, Curb side", "DBH": 3.0, "CommonName": "Other", "Height": "NULL", "TreeID": 21411.0, "Street": "Sunset Blvd", "SiteOrder": 13.0, "ICOUNT": 43, "LatinName": "Other", "AddressNo": 2692.0}},{"geometry": {"type": "Point", "coordinates": [-122.49426231638705, 37.73713547506831]}, "type": "Feature", "id": 134, "properties": {"LocSite": "Sidewalk, Curb side", "DBH": 18.0, "CommonName": "Monterey Cypress", "Height": "NULL", "TreeID": 21412.0, "Street": "Sunset Blvd", "SiteOrder": 14.0, "ICOUNT": 43, "LatinName": "Cupressus macrocarpa", "AddressNo": 2692.0}},{"geometry": {"type": "Point", "coordinates": [-122.49426419604454, 37.73716289802605]}, "type": "Feature", "id": 135, "properties": {"LocSite": "Sidewalk, Curb side", "DBH": 18.0, "CommonName": "Blackwood Acacia", "Height": "NULL", "TreeID": 21413.0, "Street": "Sunset Blvd", "SiteOrder": 15.0, "ICOUNT": 43, "LatinName": "Acacia melanoxylon", "AddressNo": 2692.0}},{"geometry": {"type": "Point", "coordinates": [-122.49426607570345, 37.737190320983636]}, "type": "Feature", "id": 136, "properties": {"LocSite": "Sidewalk, Curb side", "DBH": 12.0, "CommonName": "Monterey Pine", "Height": "NULL", "TreeID": 21414.0, "Street": "Sunset Blvd", "SiteOrder": 16.0, "ICOUNT": 43, "LatinName": "Pinus radiata", "AddressNo": 2692.0}},{"geometry": {"type": "Point", "coordinates": [-122.49426795532915, 37.73721774394167]}, "type": "Feature", "id": 137, "properties": {"LocSite": "Sidewalk, Curb side", "DBH": 48.0, "CommonName": "Monterey Pine", "Height": "NULL", "TreeID": 21415.0, "Street": "Sunset Blvd", "SiteOrder": 17.0, "ICOUNT": 43, "LatinName": "Pinus radiata", "AddressNo": 2692.0}},{"geometry": {"type": "Point", "coordinates": [-122.49426983499153, 37.73724516692643]}, "type": "Feature", "id": 138, "properties": {"LocSite": "Sidewalk, Curb side", "DBH": 0.0, "CommonName": "Planting Site", "Height": "NULL", "TreeID": 21416.0, "Street": "Sunset Blvd", "SiteOrder": 18.0, "ICOUNT": 43, "LatinName": "Planting site", "AddressNo": 2692.0}},{"geometry": {"type": "Point", "coordinates": [-122.49426983499153, 37.73724516692643]}, "type": "Feature", "id": 139, "properties": {"LocSite": "Sidewalk, Curb side", "DBH": 48.0, "CommonName": "Monterey Pine", "Height": "NULL", "TreeID": 21417.0, "Street": "Sunset Blvd", "SiteOrder": 18.0, "ICOUNT": 43, "LatinName": "Pinus radiata", "AddressNo": 2692.0}},{"geometry": {"type": "Point", "coordinates": [-122.49427171465459, 37.737272589883545]}, "type": "Feature", "id": 140, "properties": {"LocSite": "Sidewalk, Curb side", "DBH": 0.0, "CommonName": "Planting Site", "Height": "NULL", "TreeID": 21418.0, "Street": "Sunset Blvd", "SiteOrder": 19.0, "ICOUNT": 43, "LatinName": "Planting site", "AddressNo": 2692.0}},{"geometry": {"type": "Point", "coordinates": [-122.49427171465459, 37.737272589883545]}, "type": "Feature", "id": 141, "properties": {"LocSite": "Sidewalk, Curb side", "DBH": 0.0, "CommonName": "Planting Site", "Height": "NULL", "TreeID": 21419.0, "Street": "Sunset Blvd", "SiteOrder": 19.0, "ICOUNT": 43, "LatinName": "Planting site", "AddressNo": 2692.0}},{"geometry": {"type": "Point", "coordinates": [-122.49427171465459, 37.737272589883545]}, "type": "Feature", "id": 142, "properties": {"LocSite": "Sidewalk, Curb side", "DBH": 3.0, "CommonName": "Monterey Pine", "Height": "NULL", "TreeID": 21420.0, "Street": "Sunset Blvd", "SiteOrder": 19.0, "ICOUNT": 43, "LatinName": "Pinus radiata", "AddressNo": 2692.0}},{"geometry": {"type": "Point", "coordinates": [-122.49427359431904, 37.737300012840485]}, "type": "Feature", "id": 143, "properties": {"LocSite": "Sidewalk, Curb side", "DBH": 12.0, "CommonName": "Monterey Pine", "Height": "NULL", "TreeID": 21421.0, "Street": "Sunset Blvd", "SiteOrder": 20.0, "ICOUNT": 43, "LatinName": "Pinus radiata", "AddressNo": 2692.0}},{"geometry": {"type": "Point", "coordinates": [-122.49427547398486, 37.73732743579733]}, "type": "Feature", "id": 144, "properties": {"LocSite": "Sidewalk, Curb side", "DBH": 12.0, "CommonName": "Monterey Pine", "Height": "NULL", "TreeID": 21422.0, "Street": "Sunset Blvd", "SiteOrder": 21.0, "ICOUNT": 43, "LatinName": "Pinus radiata", "AddressNo": 2692.0}},{"geometry": {"type": "Point", "coordinates": [-122.49427735365208, 37.73735485875399]}, "type": "Feature", "id": 145, "properties": {"LocSite": "Sidewalk, Curb side", "DBH": 48.0, "CommonName": "Monterey Pine", "Height": "NULL", "TreeID": 21423.0, "Street": "Sunset Blvd", "SiteOrder": 22.0, "ICOUNT": 43, "LatinName": "Pinus radiata", "AddressNo": 2692.0}},{"geometry": {"type": "Point", "coordinates": [-122.49427923332141, 37.73738228173796]}, "type": "Feature", "id": 146, "properties": {"LocSite": "Sidewalk, Curb side", "DBH": 12.0, "CommonName": "Other", "Height": "NULL", "TreeID": 21424.0, "Street": "Sunset Blvd", "SiteOrder": 23.0, "ICOUNT": 43, "LatinName": "Other", "AddressNo": 2692.0}},{"geometry": {"type": "Point", "coordinates": [-122.49428111299142, 37.73740970469432]}, "type": "Feature", "id": 147, "properties": {"LocSite": "Sidewalk, Curb side", "DBH": 48.0, "CommonName": "Monterey Pine", "Height": "NULL", "TreeID": 21425.0, "Street": "Sunset Blvd", "SiteOrder": 24.0, "ICOUNT": 43, "LatinName": "Pinus radiata", "AddressNo": 2692.0}},{"geometry": {"type": "Point", "coordinates": [-122.49428299266276, 37.737437127650495]}, "type": "Feature", "id": 148, "properties": {"LocSite": "Sidewalk, Curb side", "DBH": 0.0, "CommonName": "Planting Site", "Height": "NULL", "TreeID": 21426.0, "Street": "Sunset Blvd", "SiteOrder": 25.0, "ICOUNT": 43, "LatinName": "Planting site", "AddressNo": 2692.0}},{"geometry": {"type": "Point", "coordinates": [-122.49428299266276, 37.737437127650495]}, "type": "Feature", "id": 149, "properties": {"LocSite": "Sidewalk, Curb side", "DBH": 0.0, "CommonName": "Planting Site", "Height": "NULL", "TreeID": 21427.0, "Street": "Sunset Blvd", "SiteOrder": 25.0, "ICOUNT": 43, "LatinName": "Planting site", "AddressNo": 2692.0}},{"geometry": {"type": "Point", "coordinates": [-122.49428299266276, 37.737437127650495]}, "type": "Feature", "id": 150, "properties": {"LocSite": "Sidewalk, Curb side", "DBH": 48.0, "CommonName": "Monterey Cypress", "Height": "NULL", "TreeID": 21428.0, "Street": "Sunset Blvd", "SiteOrder": 25.0, "ICOUNT": 43, "LatinName": "Cupressus macrocarpa", "AddressNo": 2692.0}},{"geometry": {"type": "Point", "coordinates": [-122.49428487233553, 37.73746455060656]}, "type": "Feature", "id": 151, "properties": {"LocSite": "Sidewalk, Curb side", "DBH": 48.0, "CommonName": "Canary Island Pine", "Height": "NULL", "TreeID": 21429.0, "Street": "Sunset Blvd", "SiteOrder": 26.0, "ICOUNT": 43, "LatinName": "Pinus canariensis", "AddressNo": 2692.0}},{"geometry": {"type": "Point", "coordinates": [-122.49428675200964, 37.737491973562456]}, "type": "Feature", "id": 152, "properties": {"LocSite": "Sidewalk, Curb side", "DBH": 3.0, "CommonName": "Other", "Height": "NULL", "TreeID": 21430.0, "Street": "Sunset Blvd", "SiteOrder": 27.0, "ICOUNT": 43, "LatinName": "Other", "AddressNo": 2692.0}},{"geometry": {"type": "Point", "coordinates": [-122.49428863165136, 37.73751939654625]}, "type": "Feature", "id": 153, "properties": {"LocSite": "Sidewalk, Curb side", "DBH": 36.0, "CommonName": "Canary Island Pine", "Height": "NULL", "TreeID": 21431.0, "Street": "Sunset Blvd", "SiteOrder": 28.0, "ICOUNT": 43, "LatinName": "Pinus canariensis", "AddressNo": 2692.0}},{"geometry": {"type": "Point", "coordinates": [-122.49429051132829, 37.73754681950181]}, "type": "Feature", "id": 154, "properties": {"LocSite": "Sidewalk, Curb side", "DBH": 3.0, "CommonName": "Other", "Height": "NULL", "TreeID": 21432.0, "Street": "Sunset Blvd", "SiteOrder": 29.0, "ICOUNT": 43, "LatinName": "Other", "AddressNo": 2692.0}},{"geometry": {"type": "Point", "coordinates": [-122.4942923910066, 37.73757424245724]}, "type": "Feature", "id": 155, "properties": {"LocSite": "Sidewalk, Curb side", "DBH": 3.0, "CommonName": "Other", "Height": "NULL", "TreeID": 21433.0, "Street": "Sunset Blvd", "SiteOrder": 30.0, "ICOUNT": 43, "LatinName": "Other", "AddressNo": 2692.0}},{"geometry": {"type": "Point", "coordinates": [-122.4942942706863, 37.737601665412505]}, "type": "Feature", "id": 156, "properties": {"LocSite": "Sidewalk, Curb side", "DBH": 12.0, "CommonName": "Maritime Pine", "Height": "NULL", "TreeID": 21434.0, "Street": "Sunset Blvd", "SiteOrder": 31.0, "ICOUNT": 43, "LatinName": "Pinus pinaster", "AddressNo": 2692.0}},{"geometry": {"type": "Point", "coordinates": [-122.49429615036736, 37.73762908836762]}, "type": "Feature", "id": 157, "properties": {"LocSite": "Sidewalk, Curb side", "DBH": 12.0, "CommonName": "Monterey Pine", "Height": "NULL", "TreeID": 21435.0, "Street": "Sunset Blvd", "SiteOrder": 32.0, "ICOUNT": 43, "LatinName": "Pinus radiata", "AddressNo": 2692.0}},{"geometry": {"type": "Point", "coordinates": [-122.49429803005057, 37.73765651135004]}, "type": "Feature", "id": 158, "properties": {"LocSite": "Sidewalk, Curb side", "DBH": 3.0, "CommonName": "Golden Wattle", "Height": "NULL", "TreeID": 21436.0, "Street": "Sunset Blvd", "SiteOrder": 33.0, "ICOUNT": 43, "LatinName": "Acacia longifolia", "AddressNo": 2692.0}},{"geometry": {"type": "Point", "coordinates": [-122.49429990973445, 37.73768393430484]}, "type": "Feature", "id": 159, "properties": {"LocSite": "Sidewalk, Curb side", "DBH": 0.0, "CommonName": "Planting Site", "Height": "NULL", "TreeID": 21437.0, "Street": "Sunset Blvd", "SiteOrder": 34.0, "ICOUNT": 43, "LatinName": "Planting site", "AddressNo": 2692.0}},{"geometry": {"type": "Point", "coordinates": [-122.49429990973445, 37.73768393430484]}, "type": "Feature", "id": 160, "properties": {"LocSite": "Sidewalk, Curb side", "DBH": 0.0, "CommonName": "Planting Site", "Height": "NULL", "TreeID": 21438.0, "Street": "Sunset Blvd", "SiteOrder": 34.0, "ICOUNT": 43, "LatinName": "Planting site", "AddressNo": 2692.0}},{"geometry": {"type": "Point", "coordinates": [-122.49429990973445, 37.73768393430484]}, "type": "Feature", "id": 161, "properties": {"LocSite": "Sidewalk, Curb side", "DBH": 12.0, "CommonName": "Monterey Pine", "Height": "NULL", "TreeID": 21439.0, "Street": "Sunset Blvd", "SiteOrder": 34.0, "ICOUNT": 43, "LatinName": "Pinus radiata", "AddressNo": 2692.0}},{"geometry": {"type": "Point", "coordinates": [-122.49430178941967, 37.73771135725949]}, "type": "Feature", "id": 162, "properties": {"LocSite": "Sidewalk, Curb side", "DBH": 3.0, "CommonName": "Golden Wattle", "Height": "NULL", "TreeID": 21440.0, "Street": "Sunset Blvd", "SiteOrder": 35.0, "ICOUNT": 43, "LatinName": "Acacia longifolia", "AddressNo": 2692.0}},{"geometry": {"type": "Point", "coordinates": [-122.49430366910632, 37.737738780214]}, "type": "Feature", "id": 163, "properties": {"LocSite": "Sidewalk, Curb side", "DBH": 3.0, "CommonName": "Golden Wattle", "Height": "NULL", "TreeID": 21441.0, "Street": "Sunset Blvd", "SiteOrder": 36.0, "ICOUNT": 43, "LatinName": "Acacia longifolia", "AddressNo": 2692.0}},{"geometry": {"type": "Point", "coordinates": [-122.49417321724201, 37.736640497393026]}, "type": "Feature", "id": 164, "properties": {"LocSite": "Sidewalk, Curb side", "DBH": 6.0, "CommonName": "New Zealand Xmas Tree", "Height": "NULL", "TreeID": 21442.0, "Street": "Sunset Blvd", "SiteOrder": 1.0, "ICOUNT": 7, "LatinName": "Metrosideros excelsa", "AddressNo": 2700.0}},{"geometry": {"type": "Point", "coordinates": [-122.49417388074131, 37.73666795590838]}, "type": "Feature", "id": 165, "properties": {"LocSite": "Sidewalk, Curb side", "DBH": 12.0, "CommonName": "New Zealand Xmas Tree", "Height": "NULL", "TreeID": 21443.0, "Street": "Sunset Blvd", "SiteOrder": 2.0, "ICOUNT": 7, "LatinName": "Metrosideros excelsa", "AddressNo": 2700.0}},{"geometry": {"type": "Point", "coordinates": [-122.49417454427568, 37.736695414423004]}, "type": "Feature", "id": 166, "properties": {"LocSite": "Sidewalk, Curb side", "DBH": 12.0, "CommonName": "New Zealand Xmas Tree", "Height": "NULL", "TreeID": 21444.0, "Street": "Sunset Blvd", "SiteOrder": 3.0, "ICOUNT": 7, "LatinName": "Metrosideros excelsa", "AddressNo": 2700.0}},{"geometry": {"type": "Point", "coordinates": [-122.49417520777519, 37.7367228729106]}, "type": "Feature", "id": 167, "properties": {"LocSite": "Sidewalk, Curb side", "DBH": 12.0, "CommonName": "New Zealand Xmas Tree", "Height": "NULL", "TreeID": 21445.0, "Street": "Sunset Blvd", "SiteOrder": 4.0, "ICOUNT": 7, "LatinName": "Metrosideros excelsa", "AddressNo": 2700.0}},{"geometry": {"type": "Point", "coordinates": [-122.49417653477722, 37.73677778994039]}, "type": "Feature", "id": 168, "properties": {"LocSite": "Sidewalk, Curb side", "DBH": 6.0, "CommonName": "New Zealand Xmas Tree", "Height": "NULL", "TreeID": 21446.0, "Street": "Sunset Blvd", "SiteOrder": 6.0, "ICOUNT": 7, "LatinName": "Metrosideros excelsa", "AddressNo": 2700.0}},{"geometry": {"type": "Point", "coordinates": [-122.49417719831352, 37.7368052484545]}, "type": "Feature", "id": 169, "properties": {"LocSite": "Sidewalk, Curb side", "DBH": 12.0, "CommonName": "New Zealand Xmas Tree", "Height": "NULL", "TreeID": 21447.0, "Street": "Sunset Blvd", "SiteOrder": 7.0, "ICOUNT": 7, "LatinName": "Metrosideros excelsa", "AddressNo": 2700.0}},{"geometry": {"type": "Point", "coordinates": [-122.49417587127597, 37.736750331425554]}, "type": "Feature", "id": 170, "properties": {"LocSite": "Sidewalk, Curb side", "DBH": 3.0, "CommonName": "New Zealand Xmas Tree", "Height": "NULL", "TreeID": 25341.0, "Street": "Sunset Blvd", "SiteOrder": 5.0, "ICOUNT": 7, "LatinName": "Metrosideros excelsa", "AddressNo": 2700.0}},{"geometry": {"type": "Point", "coordinates": [-122.49393586698956, 37.736625162799506]}, "type": "Feature", "id": 171, "properties": {"LocSite": "Sidewalk, Curb side", "DBH": 18.0, "CommonName": "New Zealand Xmas Tree", "Height": "NULL", "TreeID": 21471.0, "Street": "Sunset Blvd", "SiteOrder": 1.0, "ICOUNT": 7, "LatinName": "Metrosideros excelsa", "AddressNo": 2703.0}},{"geometry": {"type": "Point", "coordinates": [-122.4939325209236, 37.73659782810777]}, "type": "Feature", "id": 172, "properties": {"LocSite": "Sidewalk, Curb side", "DBH": 6.0, "CommonName": "New Zealand Xmas Tree", "Height": "NULL", "TreeID": 21472.0, "Street": "Sunset Blvd", "SiteOrder": 2.0, "ICOUNT": 7, "LatinName": "Metrosideros excelsa", "AddressNo": 2703.0}},{"geometry": {"type": "Point", "coordinates": [-122.49392917485939, 37.73657049338839]}, "type": "Feature", "id": 173, "properties": {"LocSite": "Sidewalk, Curb side", "DBH": 12.0, "CommonName": "New Zealand Xmas Tree", "Height": "NULL", "TreeID": 21473.0, "Street": "Sunset Blvd", "SiteOrder": 3.0, "ICOUNT": 7, "LatinName": "Metrosideros excelsa", "AddressNo": 2703.0}},{"geometry": {"type": "Point", "coordinates": [-122.49392582879837, 37.736543158696215]}, "type": "Feature", "id": 174, "properties": {"LocSite": "Sidewalk, Curb side", "DBH": 6.0, "CommonName": "New Zealand Xmas Tree", "Height": "NULL", "TreeID": 21474.0, "Street": "Sunset Blvd", "SiteOrder": 4.0, "ICOUNT": 7, "LatinName": "Metrosideros excelsa", "AddressNo": 2703.0}},{"geometry": {"type": "Point", "coordinates": [-122.49392248273983, 37.73651582400382]}, "type": "Feature", "id": 175, "properties": {"LocSite": "Sidewalk, Curb side", "DBH": 6.0, "CommonName": "New Zealand Xmas Tree", "Height": "NULL", "TreeID": 21475.0, "Street": "Sunset Blvd", "SiteOrder": 5.0, "ICOUNT": 7, "LatinName": "Metrosideros excelsa", "AddressNo": 2703.0}},{"geometry": {"type": "Point", "coordinates": [-122.49391913668298, 37.736488489283765]}, "type": "Feature", "id": 176, "properties": {"LocSite": "Sidewalk, Curb side", "DBH": 3.0, "CommonName": "New Zealand Xmas Tree", "Height": "NULL", "TreeID": 21476.0, "Street": "Sunset Blvd", "SiteOrder": 6.0, "ICOUNT": 7, "LatinName": "Metrosideros excelsa", "AddressNo": 2703.0}},{"geometry": {"type": "Point", "coordinates": [-122.49391579059477, 37.73646115459154]}, "type": "Feature", "id": 177, "properties": {"LocSite": "Sidewalk, Curb side", "DBH": 12.0, "CommonName": "New Zealand Xmas Tree", "Height": "NULL", "TreeID": 21477.0, "Street": "Sunset Blvd", "SiteOrder": 7.0, "ICOUNT": 7, "LatinName": "Metrosideros excelsa", "AddressNo": 2703.0}},{"geometry": {"type": "Point", "coordinates": [-122.4939613230939, 37.73664829394524]}, "type": "Feature", "id": 178, "properties": {"LocSite": "Sidewalk, Curb side", "DBH": 48.0, "CommonName": "Monterey Pine", "Height": "NULL", "TreeID": 21448.0, "Street": "Sunset Blvd", "SiteOrder": 1.0, "ICOUNT": 23, "LatinName": "Pinus radiata", "AddressNo": 2701.0}},{"geometry": {"type": "Point", "coordinates": [-122.49395797701756, 37.73662095925433]}, "type": "Feature", "id": 179, "properties": {"LocSite": "Sidewalk, Curb side", "DBH": 6.0, "CommonName": "Monterey Pine", "Height": "NULL", "TreeID": 21449.0, "Street": "Sunset Blvd", "SiteOrder": 2.0, "ICOUNT": 23, "LatinName": "Pinus radiata", "AddressNo": 2701.0}},{"geometry": {"type": "Point", "coordinates": [-122.49395463094291, 37.73659362453575]}, "type": "Feature", "id": 180, "properties": {"LocSite": "Sidewalk, Curb side", "DBH": 3.0, "CommonName": "Monterey Pine", "Height": "NULL", "TreeID": 21450.0, "Street": "Sunset Blvd", "SiteOrder": 3.0, "ICOUNT": 23, "LatinName": "Pinus radiata", "AddressNo": 2701.0}},{"geometry": {"type": "Point", "coordinates": [-122.49395128487153, 37.73656628984443]}, "type": "Feature", "id": 181, "properties": {"LocSite": "Sidewalk, Curb side", "DBH": 48.0, "CommonName": "Monterey Pine", "Height": "NULL", "TreeID": 21451.0, "Street": "Sunset Blvd", "SiteOrder": 4.0, "ICOUNT": 23, "LatinName": "Pinus radiata", "AddressNo": 2701.0}},{"geometry": {"type": "Point", "coordinates": [-122.49394793880256, 37.73653895515286]}, "type": "Feature", "id": 182, "properties": {"LocSite": "Sidewalk, Curb side", "DBH": 48.0, "CommonName": "Monterey Cypress", "Height": "NULL", "TreeID": 21452.0, "Street": "Sunset Blvd", "SiteOrder": 5.0, "ICOUNT": 23, "LatinName": "Cupressus macrocarpa", "AddressNo": 2701.0}},{"geometry": {"type": "Point", "coordinates": [-122.4939445927353, 37.73651162043364]}, "type": "Feature", "id": 183, "properties": {"LocSite": "Sidewalk, Curb side", "DBH": 48.0, "CommonName": "Monterey Pine", "Height": "NULL", "TreeID": 21453.0, "Street": "Sunset Blvd", "SiteOrder": 6.0, "ICOUNT": 23, "LatinName": "Pinus radiata", "AddressNo": 2701.0}},{"geometry": {"type": "Point", "coordinates": [-122.4939412466367, 37.73648428574224]}, "type": "Feature", "id": 184, "properties": {"LocSite": "Sidewalk, Curb side", "DBH": 3.0, "CommonName": "Monterey Pine", "Height": "NULL", "TreeID": 21454.0, "Street": "Sunset Blvd", "SiteOrder": 7.0, "ICOUNT": 23, "LatinName": "Pinus radiata", "AddressNo": 2701.0}},{"geometry": {"type": "Point", "coordinates": [-122.49393790057437, 37.736456951022554]}, "type": "Feature", "id": 185, "properties": {"LocSite": "Sidewalk, Curb side", "DBH": 3.0, "CommonName": "Monterey Pine", "Height": "NULL", "TreeID": 21455.0, "Street": "Sunset Blvd", "SiteOrder": 8.0, "ICOUNT": 23, "LatinName": "Pinus radiata", "AddressNo": 2701.0}},{"geometry": {"type": "Point", "coordinates": [-122.49393455451528, 37.736429616330135]}, "type": "Feature", "id": 186, "properties": {"LocSite": "Sidewalk, Curb side", "DBH": 3.0, "CommonName": "Monterey Pine", "Height": "NULL", "TreeID": 21456.0, "Street": "Sunset Blvd", "SiteOrder": 9.0, "ICOUNT": 23, "LatinName": "Pinus radiata", "AddressNo": 2701.0}},{"geometry": {"type": "Point", "coordinates": [-122.4939312084586, 37.736402281637496]}, "type": "Feature", "id": 187, "properties": {"LocSite": "Median", "DBH": 60.0, "CommonName": "Monterey Cypress", "Height": "60", "TreeID": 21457.0, "Street": "Sunset Blvd", "SiteOrder": 10.0, "ICOUNT": 23, "LatinName": "Cupressus macrocarpa", "AddressNo": 2701.0}},{"geometry": {"type": "Point", "coordinates": [-122.49392786240368, 37.73637494691716]}, "type": "Feature", "id": 188, "properties": {"LocSite": "Sidewalk, Curb side", "DBH": 3.0, "CommonName": "Monterey Pine", "Height": "NULL", "TreeID": 21458.0, "Street": "Sunset Blvd", "SiteOrder": 11.0, "ICOUNT": 23, "LatinName": "Pinus radiata", "AddressNo": 2701.0}},{"geometry": {"type": "Point", "coordinates": [-122.49392451635194, 37.73634761222406]}, "type": "Feature", "id": 189, "properties": {"LocSite": "Sidewalk, Curb side", "DBH": 12.0, "CommonName": "Canary Island Pine", "Height": "NULL", "TreeID": 21459.0, "Street": "Sunset Blvd", "SiteOrder": 12.0, "ICOUNT": 23, "LatinName": "Pinus canariensis", "AddressNo": 2701.0}},{"geometry": {"type": "Point", "coordinates": [-122.4939211703027, 37.73632027753077]}, "type": "Feature", "id": 190, "properties": {"LocSite": "Sidewalk, Curb side", "DBH": 3.0, "CommonName": "Monterey Pine", "Height": "NULL", "TreeID": 21460.0, "Street": "Sunset Blvd", "SiteOrder": 13.0, "ICOUNT": 23, "LatinName": "Pinus radiata", "AddressNo": 2701.0}},{"geometry": {"type": "Point", "coordinates": [-122.49391782425512, 37.73629294280979]}, "type": "Feature", "id": 191, "properties": {"LocSite": "Sidewalk, Curb side", "DBH": 48.0, "CommonName": "Monterey Cypress", "Height": "NULL", "TreeID": 21461.0, "Street": "Sunset Blvd", "SiteOrder": 14.0, "ICOUNT": 23, "LatinName": "Cupressus macrocarpa", "AddressNo": 2701.0}},{"geometry": {"type": "Point", "coordinates": [-122.49391447821077, 37.736265608116035]}, "type": "Feature", "id": 192, "properties": {"LocSite": "Sidewalk, Curb side", "DBH": 6.0, "CommonName": "Monterey Pine", "Height": "NULL", "TreeID": 21462.0, "Street": "Sunset Blvd", "SiteOrder": 15.0, "ICOUNT": 23, "LatinName": "Pinus radiata", "AddressNo": 2701.0}},{"geometry": {"type": "Point", "coordinates": [-122.49391113216814, 37.736238273394626]}, "type": "Feature", "id": 193, "properties": {"LocSite": "Sidewalk, Curb side", "DBH": 48.0, "CommonName": "Monterey Cypress", "Height": "NULL", "TreeID": 21463.0, "Street": "Sunset Blvd", "SiteOrder": 16.0, "ICOUNT": 23, "LatinName": "Cupressus macrocarpa", "AddressNo": 2701.0}},{"geometry": {"type": "Point", "coordinates": [-122.49390778612873, 37.736210938700445]}, "type": "Feature", "id": 194, "properties": {"LocSite": "Sidewalk, Curb side", "DBH": 48.0, "CommonName": "Monterey Cypress", "Height": "NULL", "TreeID": 21464.0, "Street": "Sunset Blvd", "SiteOrder": 17.0, "ICOUNT": 23, "LatinName": "Cupressus macrocarpa", "AddressNo": 2701.0}},{"geometry": {"type": "Point", "coordinates": [-122.4939044400572, 37.73618360400663]}, "type": "Feature", "id": 195, "properties": {"LocSite": "Sidewalk, Curb side", "DBH": 48.0, "CommonName": "Monterey Cypress", "Height": "NULL", "TreeID": 21465.0, "Street": "Sunset Blvd", "SiteOrder": 18.0, "ICOUNT": 23, "LatinName": "Cupressus macrocarpa", "AddressNo": 2701.0}},{"geometry": {"type": "Point", "coordinates": [-122.49390109402195, 37.73615626928455]}, "type": "Feature", "id": 196, "properties": {"LocSite": "Sidewalk, Curb side", "DBH": 48.0, "CommonName": "Monterey Cypress", "Height": "NULL", "TreeID": 21466.0, "Street": "Sunset Blvd", "SiteOrder": 19.0, "ICOUNT": 23, "LatinName": "Cupressus macrocarpa", "AddressNo": 2701.0}},{"geometry": {"type": "Point", "coordinates": [-122.4938977479899, 37.73612893458971]}, "type": "Feature", "id": 197, "properties": {"LocSite": "Sidewalk, Curb side", "DBH": 48.0, "CommonName": "Monterey Cypress", "Height": "NULL", "TreeID": 21467.0, "Street": "Sunset Blvd", "SiteOrder": 20.0, "ICOUNT": 23, "LatinName": "Cupressus macrocarpa", "AddressNo": 2701.0}},{"geometry": {"type": "Point", "coordinates": [-122.49389440196029, 37.73610159989465]}, "type": "Feature", "id": 198, "properties": {"LocSite": "Sidewalk, Curb side", "DBH": 48.0, "CommonName": "Monterey Pine", "Height": "NULL", "TreeID": 21468.0, "Street": "Sunset Blvd", "SiteOrder": 21.0, "ICOUNT": 23, "LatinName": "Pinus radiata", "AddressNo": 2701.0}},{"geometry": {"type": "Point", "coordinates": [-122.49389105593248, 37.73607426517193]}, "type": "Feature", "id": 199, "properties": {"LocSite": "Sidewalk, Curb side", "DBH": 48.0, "CommonName": "Monterey Cypress", "Height": "NULL", "TreeID": 21469.0, "Street": "Sunset Blvd", "SiteOrder": 22.0, "ICOUNT": 23, "LatinName": "Cupressus macrocarpa", "AddressNo": 2701.0}},{"geometry": {"type": "Point", "coordinates": [-122.49388770990781, 37.73604693047644]}, "type": "Feature", "id": 200, "properties": {"LocSite": "Sidewalk, Curb side", "DBH": 60.0, "CommonName": "Monterey Cypress", "Height": "70", "TreeID": 21470.0, "Street": "Sunset Blvd", "SiteOrder": 23.0, "ICOUNT": 23, "LatinName": "Cupressus macrocarpa", "AddressNo": 2701.0}},{"geometry": {"type": "Point", "coordinates": [-122.49363571212939, 37.73665128315207]}, "type": "Feature", "id": 201, "properties": {"LocSite": "Sidewalk, Curb side", "DBH": 3.0, "CommonName": "Acacia Spp", "Height": "NULL", "TreeID": 759.0, "Street": "36th Ave", "SiteOrder": 1.0, "ICOUNT": 2, "LatinName": "Acacia spp", "AddressNo": 2701.0}},{"geometry": {"type": "Point", "coordinates": [-122.49363373739759, 37.73662386440448]}, "type": "Feature", "id": 202, "properties": {"LocSite": "Sidewalk, Curb side", "DBH": 24.0, "CommonName": "Acacia Spp", "Height": "NULL", "TreeID": 760.0, "Street": "36th Ave", "SiteOrder": 2.0, "ICOUNT": 2, "LatinName": "Acacia spp", "AddressNo": 2701.0}},{"geometry": {"type": "Point", "coordinates": [-122.4913331535518, 37.7340827993612]}, "type": "Feature", "id": 203, "properties": {"LocSite": "Median", "DBH": 12.0, "CommonName": "Planting Site", "Height": "NULL", "TreeID": 19455.0, "Street": "Sloat Blvd", "SiteOrder": 1.0, "ICOUNT": 12, "LatinName": "Planting site", "AddressNo": 1700.0}},{"geometry": {"type": "Point", "coordinates": [-122.49136765194969, 37.73408469017981]}, "type": "Feature", "id": 204, "properties": {"LocSite": "Median", "DBH": 12.0, "CommonName": "Planting Site", "Height": "NULL", "TreeID": 19456.0, "Street": "Sloat Blvd", "SiteOrder": 2.0, "ICOUNT": 12, "LatinName": "Planting site", "AddressNo": 1700.0}},{"geometry": {"type": "Point", "coordinates": [-122.4914021503839, 37.73408658098777]}, "type": "Feature", "id": 205, "properties": {"LocSite": "Median", "DBH": 30.0, "CommonName": "Monterey Pine", "Height": "NULL", "TreeID": 19457.0, "Street": "Sloat Blvd", "SiteOrder": 3.0, "ICOUNT": 12, "LatinName": "Pinus radiata", "AddressNo": 1700.0}},{"geometry": {"type": "Point", "coordinates": [-122.49143664878605, 37.73408847181368]}, "type": "Feature", "id": 206, "properties": {"LocSite": "Median", "DBH": 0.0, "CommonName": "Planting Site", "Height": "NULL", "TreeID": 19458.0, "Street": "Sloat Blvd", "SiteOrder": 4.0, "ICOUNT": 12, "LatinName": "Planting site", "AddressNo": 1700.0}},{"geometry": {"type": "Point", "coordinates": [-122.49147114722376, 37.73409036260141]}, "type": "Feature", "id": 207, "properties": {"LocSite": "Median", "DBH": 6.0, "CommonName": "Bushy Yate", "Height": "NULL", "TreeID": 19459.0, "Street": "Sloat Blvd", "SiteOrder": 5.0, "ICOUNT": 12, "LatinName": "Eucalyptus lehmanni", "AddressNo": 1700.0}},{"geometry": {"type": "Point", "coordinates": [-122.49150564562866, 37.73409225337962]}, "type": "Feature", "id": 208, "properties": {"LocSite": "Median", "DBH": 3.0, "CommonName": "Red Flowering Gum", "Height": "NULL", "TreeID": 19460.0, "Street": "Sloat Blvd", "SiteOrder": 6.0, "ICOUNT": 12, "LatinName": "Corymbia ficifolia", "AddressNo": 1700.0}},{"geometry": {"type": "Point", "coordinates": [-122.49154014403531, 37.73409414414774]}, "type": "Feature", "id": 209, "properties": {"LocSite": "Median", "DBH": 0.0, "CommonName": "Paved Over", "Height": "NULL", "TreeID": 19461.0, "Street": "Sloat Blvd", "SiteOrder": 7.0, "ICOUNT": 12, "LatinName": "Paved Over", "AddressNo": 1700.0}},{"geometry": {"type": "Point", "coordinates": [-122.49157464247831, 37.73409603490518]}, "type": "Feature", "id": 210, "properties": {"LocSite": "Median", "DBH": 0.0, "CommonName": "Paved Over", "Height": "NULL", "TreeID": 19462.0, "Street": "Sloat Blvd", "SiteOrder": 8.0, "ICOUNT": 12, "LatinName": "Paved Over", "AddressNo": 1700.0}},{"geometry": {"type": "Point", "coordinates": [-122.49160914088849, 37.73409792565311]}, "type": "Feature", "id": 211, "properties": {"LocSite": "Median", "DBH": 6.0, "CommonName": "Bushy Yate", "Height": "NULL", "TreeID": 19463.0, "Street": "Sloat Blvd", "SiteOrder": 9.0, "ICOUNT": 12, "LatinName": "Eucalyptus lehmanni", "AddressNo": 1700.0}},{"geometry": {"type": "Point", "coordinates": [-122.49164363933573, 37.734099816417825]}, "type": "Feature", "id": 212, "properties": {"LocSite": "Median", "DBH": 3.0, "CommonName": "Bushy Yate", "Height": "NULL", "TreeID": 19464.0, "Street": "Sloat Blvd", "SiteOrder": 10.0, "ICOUNT": 12, "LatinName": "Eucalyptus lehmanni", "AddressNo": 1700.0}},{"geometry": {"type": "Point", "coordinates": [-122.4916781377494, 37.73410170714554]}, "type": "Feature", "id": 213, "properties": {"LocSite": "Median", "DBH": 6.0, "CommonName": "Bushy Yate", "Height": "NULL", "TreeID": 19465.0, "Street": "Sloat Blvd", "SiteOrder": 11.0, "ICOUNT": 12, "LatinName": "Eucalyptus lehmanni", "AddressNo": 1700.0}},{"geometry": {"type": "Point", "coordinates": [-122.4917126361994, 37.734103597862564]}, "type": "Feature", "id": 214, "properties": {"LocSite": "Median", "DBH": 6.0, "CommonName": "Bushy Yate", "Height": "NULL", "TreeID": 19466.0, "Street": "Sloat Blvd", "SiteOrder": 12.0, "ICOUNT": 12, "LatinName": "Eucalyptus lehmanni", "AddressNo": 1700.0}},{"geometry": {"type": "Point", "coordinates": [-122.49481620471042, 37.73841798754559]}, "type": "Feature", "id": 215, "properties": {"LocSite": "Sidewalk, Curb side", "DBH": 24.0, "CommonName": "Acacia Spp", "Height": "NULL", "TreeID": 794.0, "Street": "37th Ave", "SiteOrder": 1.0, "ICOUNT": 4, "LatinName": "Acacia spp", "AddressNo": 2601.0}},{"geometry": {"type": "Point", "coordinates": [-122.49481430007975, 37.73839056568045]}, "type": "Feature", "id": 216, "properties": {"LocSite": "Sidewalk, Curb side", "DBH": 24.0, "CommonName": "Acacia Spp", "Height": "NULL", "TreeID": 795.0, "Street": "37th Ave", "SiteOrder": 2.0, "ICOUNT": 4, "LatinName": "Acacia spp", "AddressNo": 2601.0}},{"geometry": {"type": "Point", "coordinates": [-122.49481239541593, 37.73836314381575]}, "type": "Feature", "id": 217, "properties": {"LocSite": "Sidewalk, Curb side", "DBH": 24.0, "CommonName": "Acacia Spp", "Height": "NULL", "TreeID": 796.0, "Street": "37th Ave", "SiteOrder": 3.0, "ICOUNT": 4, "LatinName": "Acacia spp", "AddressNo": 2601.0}},{"geometry": {"type": "Point", "coordinates": [-122.49481049078732, 37.73833572192283]}, "type": "Feature", "id": 218, "properties": {"LocSite": "Sidewalk, Curb side", "DBH": 18.0, "CommonName": "Acacia Spp", "Height": "NULL", "TreeID": 797.0, "Street": "37th Ave", "SiteOrder": 4.0, "ICOUNT": 4, "LatinName": "Acacia spp", "AddressNo": 2601.0}},{"geometry": {"type": "Point", "coordinates": [-122.49430503202662, 37.73848475822148]}, "type": "Feature", "id": 219, "properties": {"LocSite": "Sidewalk, Curb side", "DBH": 12.0, "CommonName": "New Zealand Xmas Tree", "Height": "NULL", "TreeID": 21371.0, "Street": "Sunset Blvd", "SiteOrder": 1.0, "ICOUNT": 6, "LatinName": "Metrosideros excelsa", "AddressNo": 2600.0}},{"geometry": {"type": "Point", "coordinates": [-122.494306911734, 37.738512181172375]}, "type": "Feature", "id": 220, "properties": {"LocSite": "Sidewalk, Curb side", "DBH": 12.0, "CommonName": "New Zealand Xmas Tree", "Height": "NULL", "TreeID": 21372.0, "Street": "Sunset Blvd", "SiteOrder": 2.0, "ICOUNT": 6, "LatinName": "Metrosideros excelsa", "AddressNo": 2600.0}},{"geometry": {"type": "Point", "coordinates": [-122.49430879144276, 37.73853960412316]}, "type": "Feature", "id": 221, "properties": {"LocSite": "Sidewalk, Curb side", "DBH": 3.0, "CommonName": "New Zealand Xmas Tree", "Height": "NULL", "TreeID": 21373.0, "Street": "Sunset Blvd", "SiteOrder": 3.0, "ICOUNT": 6, "LatinName": "Metrosideros excelsa", "AddressNo": 2600.0}},{"geometry": {"type": "Point", "coordinates": [-122.49431067115368, 37.738567027101226]}, "type": "Feature", "id": 222, "properties": {"LocSite": "Sidewalk, Curb side", "DBH": 12.0, "CommonName": "New Zealand Xmas Tree", "Height": "NULL", "TreeID": 21374.0, "Street": "Sunset Blvd", "SiteOrder": 4.0, "ICOUNT": 6, "LatinName": "Metrosideros excelsa", "AddressNo": 2600.0}},{"geometry": {"type": "Point", "coordinates": [-122.49431255086522, 37.73859445005168]}, "type": "Feature", "id": 223, "properties": {"LocSite": "Sidewalk, Curb side", "DBH": 12.0, "CommonName": "New Zealand Xmas Tree", "Height": "NULL", "TreeID": 21375.0, "Street": "Sunset Blvd", "SiteOrder": 5.0, "ICOUNT": 6, "LatinName": "Metrosideros excelsa", "AddressNo": 2600.0}},{"geometry": {"type": "Point", "coordinates": [-122.49431443057817, 37.738621873001996]}, "type": "Feature", "id": 224, "properties": {"LocSite": "Sidewalk, Curb side", "DBH": 6.0, "CommonName": "New Zealand Xmas Tree", "Height": "NULL", "TreeID": 21376.0, "Street": "Sunset Blvd", "SiteOrder": 6.0, "ICOUNT": 6, "LatinName": "Metrosideros excelsa", "AddressNo": 2600.0}},{"geometry": {"type": "Point", "coordinates": [-122.49436368275842, 37.73864488250325]}, "type": "Feature", "id": 225, "properties": {"LocSite": "Sidewalk, Curb side", "DBH": 48.0, "CommonName": "Monterey Cypress", "Height": "NULL", "TreeID": 21337.0, "Street": "Sunset Blvd", "SiteOrder": 1.0, "ICOUNT": 34, "LatinName": "Cupressus macrocarpa", "AddressNo": 2592.0}},{"geometry": {"type": "Point", "coordinates": [-122.49436561708055, 37.73867230307261]}, "type": "Feature", "id": 226, "properties": {"LocSite": "Sidewalk, Curb side", "DBH": 3.0, "CommonName": "Bronze Loquat", "Height": "NULL", "TreeID": 21338.0, "Street": "Sunset Blvd", "SiteOrder": 2.0, "ICOUNT": 34, "LatinName": "Eriobotrya deflexa", "AddressNo": 2592.0}},{"geometry": {"type": "Point", "coordinates": [-122.4943675513688, 37.73869972361492]}, "type": "Feature", "id": 227, "properties": {"LocSite": "Sidewalk, Curb side", "DBH": 48.0, "CommonName": "Monterey Pine", "Height": "NULL", "TreeID": 21339.0, "Street": "Sunset Blvd", "SiteOrder": 3.0, "ICOUNT": 34, "LatinName": "Pinus radiata", "AddressNo": 2592.0}},{"geometry": {"type": "Point", "coordinates": [-122.4943694856938, 37.73872714418398]}, "type": "Feature", "id": 228, "properties": {"LocSite": "Sidewalk, Curb side", "DBH": 3.0, "CommonName": "Monterey Pine", "Height": "NULL", "TreeID": 21340.0, "Street": "Sunset Blvd", "SiteOrder": 4.0, "ICOUNT": 34, "LatinName": "Pinus radiata", "AddressNo": 2592.0}},{"geometry": {"type": "Point", "coordinates": [-122.4943714200202, 37.738754564752874]}, "type": "Feature", "id": 229, "properties": {"LocSite": "Sidewalk, Curb side", "DBH": 3.0, "CommonName": "Bronze Loquat", "Height": "NULL", "TreeID": 21341.0, "Street": "Sunset Blvd", "SiteOrder": 5.0, "ICOUNT": 34, "LatinName": "Eriobotrya deflexa", "AddressNo": 2592.0}},{"geometry": {"type": "Point", "coordinates": [-122.4943733543127, 37.73878198529476]}, "type": "Feature", "id": 230, "properties": {"LocSite": "Sidewalk, Curb side", "DBH": 48.0, "CommonName": "Monterey Cypress", "Height": "NULL", "TreeID": 21342.0, "Street": "Sunset Blvd", "SiteOrder": 6.0, "ICOUNT": 34, "LatinName": "Cupressus macrocarpa", "AddressNo": 2592.0}},{"geometry": {"type": "Point", "coordinates": [-122.49437528864196, 37.738809405863336]}, "type": "Feature", "id": 231, "properties": {"LocSite": "Sidewalk, Curb side", "DBH": 3.0, "CommonName": "Bronze Loquat", "Height": "NULL", "TreeID": 21343.0, "Street": "Sunset Blvd", "SiteOrder": 7.0, "ICOUNT": 34, "LatinName": "Eriobotrya deflexa", "AddressNo": 2592.0}},{"geometry": {"type": "Point", "coordinates": [-122.49437722297267, 37.738836826431765]}, "type": "Feature", "id": 232, "properties": {"LocSite": "Sidewalk, Curb side", "DBH": 48.0, "CommonName": "Monterey Pine", "Height": "NULL", "TreeID": 21344.0, "Street": "Sunset Blvd", "SiteOrder": 8.0, "ICOUNT": 34, "LatinName": "Pinus radiata", "AddressNo": 2592.0}},{"geometry": {"type": "Point", "coordinates": [-122.49437915727023, 37.738864247000606]}, "type": "Feature", "id": 233, "properties": {"LocSite": "Sidewalk, Curb side", "DBH": 3.0, "CommonName": "Victorian Box", "Height": "NULL", "TreeID": 21345.0, "Street": "Sunset Blvd", "SiteOrder": 9.0, "ICOUNT": 34, "LatinName": "Pittosporum undulatum", "AddressNo": 2592.0}},{"geometry": {"type": "Point", "coordinates": [-122.494381091603, 37.73889166754126]}, "type": "Feature", "id": 234, "properties": {"LocSite": "Sidewalk, Curb side", "DBH": 3.0, "CommonName": "Victorian Box", "Height": "NULL", "TreeID": 21346.0, "Street": "Sunset Blvd", "SiteOrder": 10.0, "ICOUNT": 34, "LatinName": "Pittosporum undulatum", "AddressNo": 2592.0}},{"geometry": {"type": "Point", "coordinates": [-122.49438302590342, 37.738919088109796]}, "type": "Feature", "id": 235, "properties": {"LocSite": "Sidewalk, Curb side", "DBH": 3.0, "CommonName": "Victorian Box", "Height": "NULL", "TreeID": 21347.0, "Street": "Sunset Blvd", "SiteOrder": 11.0, "ICOUNT": 34, "LatinName": "Pittosporum undulatum", "AddressNo": 2592.0}},{"geometry": {"type": "Point", "coordinates": [-122.49438496023981, 37.73894650867761]}, "type": "Feature", "id": 236, "properties": {"LocSite": "Sidewalk, Curb side", "DBH": 48.0, "CommonName": "Monterey Pine", "Height": "NULL", "TreeID": 21348.0, "Street": "Sunset Blvd", "SiteOrder": 12.0, "ICOUNT": 34, "LatinName": "Pinus radiata", "AddressNo": 2592.0}},{"geometry": {"type": "Point", "coordinates": [-122.4943868945769, 37.738973929217785]}, "type": "Feature", "id": 237, "properties": {"LocSite": "Sidewalk, Curb side", "DBH": 3.0, "CommonName": "Swamp Myrtle", "Height": "NULL", "TreeID": 21349.0, "Street": "Sunset Blvd", "SiteOrder": 13.0, "ICOUNT": 34, "LatinName": "Tristaniopsis laurina", "AddressNo": 2592.0}},{"geometry": {"type": "Point", "coordinates": [-122.4943888288816, 37.73900134978586]}, "type": "Feature", "id": 238, "properties": {"LocSite": "Sidewalk, Curb side", "DBH": 3.0, "CommonName": "Swamp Myrtle", "Height": "NULL", "TreeID": 21350.0, "Street": "Sunset Blvd", "SiteOrder": 14.0, "ICOUNT": 34, "LatinName": "Tristaniopsis laurina", "AddressNo": 2592.0}},{"geometry": {"type": "Point", "coordinates": [-122.49439076322228, 37.73902877035319]}, "type": "Feature", "id": 239, "properties": {"LocSite": "Sidewalk, Curb side", "DBH": 12.0, "CommonName": "Mayten", "Height": "NULL", "TreeID": 21351.0, "Street": "Sunset Blvd", "SiteOrder": 15.0, "ICOUNT": 34, "LatinName": "Maytenus boaria", "AddressNo": 2592.0}},{"geometry": {"type": "Point", "coordinates": [-122.49439269756365, 37.7390561908929]}, "type": "Feature", "id": 240, "properties": {"LocSite": "Sidewalk, Curb side", "DBH": 3.0, "CommonName": "Swamp Myrtle", "Height": "NULL", "TreeID": 21352.0, "Street": "Sunset Blvd", "SiteOrder": 16.0, "ICOUNT": 34, "LatinName": "Tristaniopsis laurina", "AddressNo": 2592.0}},{"geometry": {"type": "Point", "coordinates": [-122.49439463187261, 37.7390836114605]}, "type": "Feature", "id": 241, "properties": {"LocSite": "Sidewalk, Curb side", "DBH": 48.0, "CommonName": "Monterey Pine", "Height": "NULL", "TreeID": 21353.0, "Street": "Sunset Blvd", "SiteOrder": 17.0, "ICOUNT": 34, "LatinName": "Pinus radiata", "AddressNo": 2592.0}},{"geometry": {"type": "Point", "coordinates": [-122.4943965662176, 37.73911103202736]}, "type": "Feature", "id": 242, "properties": {"LocSite": "Sidewalk, Curb side", "DBH": 48.0, "CommonName": "Monterey Pine", "Height": "NULL", "TreeID": 21354.0, "Street": "Sunset Blvd", "SiteOrder": 18.0, "ICOUNT": 34, "LatinName": "Pinus radiata", "AddressNo": 2592.0}},{"geometry": {"type": "Point", "coordinates": [-122.49439850056325, 37.73913845256659]}, "type": "Feature", "id": 243, "properties": {"LocSite": "Sidewalk, Curb side", "DBH": 48.0, "CommonName": "Monterey Cypress", "Height": "NULL", "TreeID": 21355.0, "Street": "Sunset Blvd", "SiteOrder": 19.0, "ICOUNT": 34, "LatinName": "Cupressus macrocarpa", "AddressNo": 2592.0}},{"geometry": {"type": "Point", "coordinates": [-122.49440043487648, 37.739165873133715]}, "type": "Feature", "id": 244, "properties": {"LocSite": "Sidewalk, Curb side", "DBH": 48.0, "CommonName": "Monterey Pine", "Height": "NULL", "TreeID": 21356.0, "Street": "Sunset Blvd", "SiteOrder": 20.0, "ICOUNT": 34, "LatinName": "Pinus radiata", "AddressNo": 2592.0}},{"geometry": {"type": "Point", "coordinates": [-122.49440236922572, 37.739193293700104]}, "type": "Feature", "id": 245, "properties": {"LocSite": "Sidewalk, Curb side", "DBH": 0.0, "CommonName": "Planting Site", "Height": "NULL", "TreeID": 21357.0, "Street": "Sunset Blvd", "SiteOrder": 21.0, "ICOUNT": 34, "LatinName": "Planting site", "AddressNo": 2592.0}},{"geometry": {"type": "Point", "coordinates": [-122.49440236922572, 37.739193293700104]}, "type": "Feature", "id": 246, "properties": {"LocSite": "Sidewalk, Curb side", "DBH": 0.0, "CommonName": "Planting Site", "Height": "NULL", "TreeID": 21358.0, "Street": "Sunset Blvd", "SiteOrder": 21.0, "ICOUNT": 34, "LatinName": "Planting site", "AddressNo": 2592.0}},{"geometry": {"type": "Point", "coordinates": [-122.49440236922572, 37.739193293700104]}, "type": "Feature", "id": 247, "properties": {"LocSite": "Sidewalk, Curb side", "DBH": 3.0, "CommonName": "Other", "Height": "NULL", "TreeID": 21359.0, "Street": "Sunset Blvd", "SiteOrder": 21.0, "ICOUNT": 34, "LatinName": "Other", "AddressNo": 2592.0}},{"geometry": {"type": "Point", "coordinates": [-122.4944043035764, 37.739220714266324]}, "type": "Feature", "id": 248, "properties": {"LocSite": "Sidewalk, Curb side", "DBH": 48.0, "CommonName": "Monterey Cypress", "Height": "NULL", "TreeID": 21360.0, "Street": "Sunset Blvd", "SiteOrder": 22.0, "ICOUNT": 34, "LatinName": "Cupressus macrocarpa", "AddressNo": 2592.0}},{"geometry": {"type": "Point", "coordinates": [-122.49440623789317, 37.739248134805536]}, "type": "Feature", "id": 249, "properties": {"LocSite": "Sidewalk, Curb side", "DBH": 3.0, "CommonName": "Other", "Height": "NULL", "TreeID": 21361.0, "Street": "Sunset Blvd", "SiteOrder": 23.0, "ICOUNT": 34, "LatinName": "Other", "AddressNo": 2592.0}},{"geometry": {"type": "Point", "coordinates": [-122.49440817224672, 37.73927555537144]}, "type": "Feature", "id": 250, "properties": {"LocSite": "Sidewalk, Curb side", "DBH": 3.0, "CommonName": "Other", "Height": "NULL", "TreeID": 21362.0, "Street": "Sunset Blvd", "SiteOrder": 24.0, "ICOUNT": 34, "LatinName": "Other", "AddressNo": 2592.0}},{"geometry": {"type": "Point", "coordinates": [-122.49441010660168, 37.73930297593723]}, "type": "Feature", "id": 251, "properties": {"LocSite": "Sidewalk, Curb side", "DBH": 48.0, "CommonName": "Monterey Pine", "Height": "NULL", "TreeID": 21363.0, "Street": "Sunset Blvd", "SiteOrder": 25.0, "ICOUNT": 34, "LatinName": "Pinus radiata", "AddressNo": 2592.0}},{"geometry": {"type": "Point", "coordinates": [-122.49441204092275, 37.73933039647594]}, "type": "Feature", "id": 252, "properties": {"LocSite": "Sidewalk, Curb side", "DBH": 48.0, "CommonName": "Monterey Cypress", "Height": "NULL", "TreeID": 21364.0, "Street": "Sunset Blvd", "SiteOrder": 26.0, "ICOUNT": 34, "LatinName": "Cupressus macrocarpa", "AddressNo": 2592.0}},{"geometry": {"type": "Point", "coordinates": [-122.49441397528057, 37.73935781704138]}, "type": "Feature", "id": 253, "properties": {"LocSite": "Sidewalk, Curb side", "DBH": 48.0, "CommonName": "Monterey Pine", "Height": "NULL", "TreeID": 21365.0, "Street": "Sunset Blvd", "SiteOrder": 27.0, "ICOUNT": 34, "LatinName": "Pinus radiata", "AddressNo": 2592.0}},{"geometry": {"type": "Point", "coordinates": [-122.49441590960524, 37.739385237607245]}, "type": "Feature", "id": 254, "properties": {"LocSite": "Sidewalk, Curb side", "DBH": 3.0, "CommonName": "Photinia", "Height": "NULL", "TreeID": 21366.0, "Street": "Sunset Blvd", "SiteOrder": 28.0, "ICOUNT": 34, "LatinName": "Photinia fraseri", "AddressNo": 2592.0}},{"geometry": {"type": "Point", "coordinates": [-122.49441784396514, 37.73941265814492]}, "type": "Feature", "id": 255, "properties": {"LocSite": "Sidewalk, Curb side", "DBH": 12.0, "CommonName": "Monterey Pine", "Height": "NULL", "TreeID": 21367.0, "Street": "Sunset Blvd", "SiteOrder": 29.0, "ICOUNT": 34, "LatinName": "Pinus radiata", "AddressNo": 2592.0}},{"geometry": {"type": "Point", "coordinates": [-122.49441977832726, 37.7394400787099]}, "type": "Feature", "id": 256, "properties": {"LocSite": "Sidewalk, Curb side", "DBH": 3.0, "CommonName": "Photinia", "Height": "NULL", "TreeID": 21368.0, "Street": "Sunset Blvd", "SiteOrder": 30.0, "ICOUNT": 34, "LatinName": "Photinia fraseri", "AddressNo": 2592.0}},{"geometry": {"type": "Point", "coordinates": [-122.49442171265622, 37.73946749927527]}, "type": "Feature", "id": 257, "properties": {"LocSite": "Sidewalk, Curb side", "DBH": 3.0, "CommonName": "Photinia", "Height": "NULL", "TreeID": 21369.0, "Street": "Sunset Blvd", "SiteOrder": 31.0, "ICOUNT": 34, "LatinName": "Photinia fraseri", "AddressNo": 2592.0}},{"geometry": {"type": "Point", "coordinates": [-122.49442364702115, 37.73949491983995]}, "type": "Feature", "id": 258, "properties": {"LocSite": "Sidewalk, Curb side", "DBH": 3.0, "CommonName": "Monterey Pine", "Height": "NULL", "TreeID": 21370.0, "Street": "Sunset Blvd", "SiteOrder": 32.0, "ICOUNT": 34, "LatinName": "Pinus radiata", "AddressNo": 2592.0}},{"geometry": {"type": "Point", "coordinates": [-122.49405559745948, 37.738467672213766]}, "type": "Feature", "id": 259, "properties": {"LocSite": "Sidewalk, Curb side", "DBH": 6.0, "CommonName": "New Zealand Xmas Tree", "Height": "NULL", "TreeID": 21393.0, "Street": "Sunset Blvd", "SiteOrder": 1.0, "ICOUNT": 6, "LatinName": "Metrosideros excelsa", "AddressNo": 2603.0}},{"geometry": {"type": "Point", "coordinates": [-122.49405371784596, 37.73844024925863]}, "type": "Feature", "id": 260, "properties": {"LocSite": "Sidewalk, Curb side", "DBH": 12.0, "CommonName": "New Zealand Xmas Tree", "Height": "NULL", "TreeID": 21394.0, "Street": "Sunset Blvd", "SiteOrder": 2.0, "ICOUNT": 6, "LatinName": "Metrosideros excelsa", "AddressNo": 2603.0}},{"geometry": {"type": "Point", "coordinates": [-122.49405183823382, 37.738412826303346]}, "type": "Feature", "id": 261, "properties": {"LocSite": "Sidewalk, Curb side", "DBH": 12.0, "CommonName": "New Zealand Xmas Tree", "Height": "NULL", "TreeID": 21395.0, "Street": "Sunset Blvd", "SiteOrder": 3.0, "ICOUNT": 6, "LatinName": "Metrosideros excelsa", "AddressNo": 2603.0}},{"geometry": {"type": "Point", "coordinates": [-122.4940499586223, 37.73838540332043]}, "type": "Feature", "id": 262, "properties": {"LocSite": "Sidewalk, Curb side", "DBH": 12.0, "CommonName": "New Zealand Xmas Tree", "Height": "NULL", "TreeID": 21396.0, "Street": "Sunset Blvd", "SiteOrder": 4.0, "ICOUNT": 6, "LatinName": "Metrosideros excelsa", "AddressNo": 2603.0}},{"geometry": {"type": "Point", "coordinates": [-122.49404807901293, 37.73835798036483]}, "type": "Feature", "id": 263, "properties": {"LocSite": "Sidewalk, Curb side", "DBH": 12.0, "CommonName": "New Zealand Xmas Tree", "Height": "NULL", "TreeID": 21397.0, "Street": "Sunset Blvd", "SiteOrder": 5.0, "ICOUNT": 6, "LatinName": "Metrosideros excelsa", "AddressNo": 2603.0}},{"geometry": {"type": "Point", "coordinates": [-122.49404619940496, 37.738330557409085]}, "type": "Feature", "id": 264, "properties": {"LocSite": "Sidewalk, Curb side", "DBH": 12.0, "CommonName": "New Zealand Xmas Tree", "Height": "NULL", "TreeID": 21398.0, "Street": "Sunset Blvd", "SiteOrder": 6.0, "ICOUNT": 6, "LatinName": "Metrosideros excelsa", "AddressNo": 2603.0}},{"geometry": {"type": "Point", "coordinates": [-122.49408238946373, 37.738496403081214]}, "type": "Feature", "id": 265, "properties": {"LocSite": "Sidewalk, Curb side", "DBH": 48.0, "CommonName": "Monterey Cypress", "Height": "NULL", "TreeID": 21377.0, "Street": "Sunset Blvd", "SiteOrder": 1.0, "ICOUNT": 16, "LatinName": "Cupressus macrocarpa", "AddressNo": 2601.0}},{"geometry": {"type": "Point", "coordinates": [-122.49408050983956, 37.73846898012663]}, "type": "Feature", "id": 266, "properties": {"LocSite": "Sidewalk, Curb side", "DBH": 6.0, "CommonName": "Monterey Cypress", "Height": "NULL", "TreeID": 21378.0, "Street": "Sunset Blvd", "SiteOrder": 2.0, "ICOUNT": 16, "LatinName": "Cupressus macrocarpa", "AddressNo": 2601.0}},{"geometry": {"type": "Point", "coordinates": [-122.49407863021683, 37.7384415571719]}, "type": "Feature", "id": 267, "properties": {"LocSite": "Sidewalk, Curb side", "DBH": 48.0, "CommonName": "Monterey Cypress", "Height": "NULL", "TreeID": 21379.0, "Street": "Sunset Blvd", "SiteOrder": 3.0, "ICOUNT": 16, "LatinName": "Cupressus macrocarpa", "AddressNo": 2601.0}},{"geometry": {"type": "Point", "coordinates": [-122.49407675059472, 37.738414134189554]}, "type": "Feature", "id": 268, "properties": {"LocSite": "Sidewalk, Curb side", "DBH": 48.0, "CommonName": "Monterey Pine", "Height": "NULL", "TreeID": 21380.0, "Street": "Sunset Blvd", "SiteOrder": 4.0, "ICOUNT": 16, "LatinName": "Pinus radiata", "AddressNo": 2601.0}},{"geometry": {"type": "Point", "coordinates": [-122.49407487097474, 37.738386711234526]}, "type": "Feature", "id": 269, "properties": {"LocSite": "Sidewalk, Curb side", "DBH": 48.0, "CommonName": "Monterey Cypress", "Height": "NULL", "TreeID": 21381.0, "Street": "Sunset Blvd", "SiteOrder": 5.0, "ICOUNT": 16, "LatinName": "Cupressus macrocarpa", "AddressNo": 2601.0}},{"geometry": {"type": "Point", "coordinates": [-122.49407299135615, 37.73835928827933]}, "type": "Feature", "id": 270, "properties": {"LocSite": "Sidewalk, Curb side", "DBH": 48.0, "CommonName": "Monterey Cypress", "Height": "NULL", "TreeID": 21382.0, "Street": "Sunset Blvd", "SiteOrder": 6.0, "ICOUNT": 16, "LatinName": "Cupressus macrocarpa", "AddressNo": 2601.0}},{"geometry": {"type": "Point", "coordinates": [-122.4940711117735, 37.73833186532339]}, "type": "Feature", "id": 271, "properties": {"LocSite": "Sidewalk, Curb side", "DBH": 48.0, "CommonName": "Monterey Cypress", "Height": "NULL", "TreeID": 21383.0, "Street": "Sunset Blvd", "SiteOrder": 7.0, "ICOUNT": 16, "LatinName": "Cupressus macrocarpa", "AddressNo": 2601.0}},{"geometry": {"type": "Point", "coordinates": [-122.49406923215768, 37.738304442367884]}, "type": "Feature", "id": 272, "properties": {"LocSite": "Sidewalk, Curb side", "DBH": 48.0, "CommonName": "Monterey Cypress", "Height": "NULL", "TreeID": 21384.0, "Street": "Sunset Blvd", "SiteOrder": 8.0, "ICOUNT": 16, "LatinName": "Cupressus macrocarpa", "AddressNo": 2601.0}},{"geometry": {"type": "Point", "coordinates": [-122.49406735254252, 37.738277019384775]}, "type": "Feature", "id": 273, "properties": {"LocSite": "Sidewalk, Curb side", "DBH": 3.0, "CommonName": "Monterey Pine", "Height": "NULL", "TreeID": 21385.0, "Street": "Sunset Blvd", "SiteOrder": 9.0, "ICOUNT": 16, "LatinName": "Pinus radiata", "AddressNo": 2601.0}},{"geometry": {"type": "Point", "coordinates": [-122.49406547292945, 37.73824959642894]}, "type": "Feature", "id": 274, "properties": {"LocSite": "Sidewalk, Curb side", "DBH": 48.0, "CommonName": "Monterey Cypress", "Height": "NULL", "TreeID": 21386.0, "Street": "Sunset Blvd", "SiteOrder": 10.0, "ICOUNT": 16, "LatinName": "Cupressus macrocarpa", "AddressNo": 2601.0}},{"geometry": {"type": "Point", "coordinates": [-122.49406359331782, 37.738222173472984]}, "type": "Feature", "id": 275, "properties": {"LocSite": "Sidewalk, Curb side", "DBH": 3.0, "CommonName": "Monterey Pine", "Height": "NULL", "TreeID": 21387.0, "Street": "Sunset Blvd", "SiteOrder": 11.0, "ICOUNT": 16, "LatinName": "Pinus radiata", "AddressNo": 2601.0}},{"geometry": {"type": "Point", "coordinates": [-122.49406171370752, 37.738194750516854]}, "type": "Feature", "id": 276, "properties": {"LocSite": "Sidewalk, Curb side", "DBH": 48.0, "CommonName": "Monterey Cypress", "Height": "NULL", "TreeID": 21388.0, "Street": "Sunset Blvd", "SiteOrder": 12.0, "ICOUNT": 16, "LatinName": "Cupressus macrocarpa", "AddressNo": 2601.0}},{"geometry": {"type": "Point", "coordinates": [-122.49405983409864, 37.73816732756057]}, "type": "Feature", "id": 277, "properties": {"LocSite": "Sidewalk, Curb side", "DBH": 48.0, "CommonName": "Monterey Cypress", "Height": "NULL", "TreeID": 21389.0, "Street": "Sunset Blvd", "SiteOrder": 13.0, "ICOUNT": 16, "LatinName": "Cupressus macrocarpa", "AddressNo": 2601.0}},{"geometry": {"type": "Point", "coordinates": [-122.49405795449042, 37.738139904576684]},