var DPW = {"type":"FeatureCollection","features":[{"geometry": {"type": "Point", "coordinates": [-122.50585367844086, 37.73564415961874]}, "type": "Feature", "id": 0, "properties": {"LocSite": "Median", "DBH": 12.0, "CommonName": "Mediterranean Fan Palm", "Height": "NULL", "TreeID": 27654.0, "Street": "Sloat Blvd", "SiteOrder": 1.0, "ICOUNT": 1, "LatinName": "Chamaerops humilis", "AddressNo": 2968.0}},{"geometry": {"type": "Point", "coordinates": [-122.50542079681189, 37.73568441423807]}, "type": "Feature", "id": 1, "properties": {"LocSite": "Median", "DBH": 12.0, "CommonName": "Mediterranean Fan Palm", "Height": "NULL", "TreeID": 27653.0, "Street": "SLOAT BLVD", "SiteOrder": 1.0, "ICOUNT": 1, "LatinName": "Chamaerops humilis", "AddressNo": 2920.0}},{"geometry": {"type": "Point", "coordinates": [-122.50458557654156, 37.73624342667554]}, "type": "Feature", "id": 2, "properties": {"LocSite": "Sidewalk, Curb side", "DBH": 0.0, "CommonName": "Pink Melaleuca", "Height": "NULL", "TreeID": 31651.0, "Street": "Wawona St", "SiteOrder": 1.0, "ICOUNT": 1, "LatinName": "Melaleuca nesophila", "AddressNo": 3530.0}},{"geometry": {"type": "Point", "coordinates": [-122.50455396802734, 37.73563404554599]}, "type": "Feature", "id": 3, "properties": {"LocSite": "Median", "DBH": 12.0, "CommonName": "Mediterranean Fan Palm", "Height": "NULL", "TreeID": 27652.0, "Street": "Sloat Blvd", "SiteOrder": 1.0, "ICOUNT": 1, "LatinName": "Chamaerops humilis", "AddressNo": 2830.0}},{"geometry": {"type": "Point", "coordinates": [-122.50544287556203, 37.73674856144043]}, "type": "Feature", "id": 4, "properties": {"LocSite": "Sidewalk, Curb side", "DBH": 0.0, "CommonName": "Hybrid Strawberry Tree", "Height": "NULL", "TreeID": 31629.0, "Street": "47th Ave", "SiteOrder": 1.0, "ICOUNT": 1, "LatinName": "Arbutus 'Marina'", "AddressNo": 2667.0}},{"geometry": {"type": "Point", "coordinates": [-122.50364711948825, 37.735627495241076]}, "type": "Feature", "id": 5, "properties": {"LocSite": "Median", "DBH": 12.0, "CommonName": "Mediterranean Fan Palm", "Height": "NULL", "TreeID": 27651.0, "Street": "Sloat Blvd", "SiteOrder": 1.0, "ICOUNT": 1, "LatinName": "Chamaerops humilis", "AddressNo": 2750.0}},{"geometry": {"type": "Point", "coordinates": [-122.50261420987756, 37.7356307759329]}, "type": "Feature", "id": 6, "properties": {"LocSite": "Median", "DBH": 12.0, "CommonName": "Mediterranean Fan Palm", "Height": "NULL", "TreeID": 27650.0, "Street": "Sloat Blvd", "SiteOrder": 1.0, "ICOUNT": 1, "LatinName": "Chamaerops humilis", "AddressNo": 2650.0}},{"geometry": {"type": "Point", "coordinates": [-122.5011949567816, 37.73541891759587]}, "type": "Feature", "id": 7, "properties": {"LocSite": "Median", "DBH": 12.0, "CommonName": "Mediterranean Fan Palm", "Height": "NULL", "TreeID": 27649.0, "Street": "Sloat Blvd", "SiteOrder": 1.0, "ICOUNT": 1, "LatinName": "Chamaerops humilis", "AddressNo": 2518.0}},{"geometry": {"type": "Point", "coordinates": [-122.50006196725705, 37.73498295902499]}, "type": "Feature", "id": 8, "properties": {"LocSite": "Median", "DBH": 12.0, "CommonName": "Mediterranean Fan Palm", "Height": "NULL", "TreeID": 27648.0, "Street": "Sloat Blvd", "SiteOrder": 1.0, "ICOUNT": 1, "LatinName": "Chamaerops humilis", "AddressNo": 2400.0}},{"geometry": {"type": "Point", "coordinates": [-122.49913363081492, 37.734359845972385]}, "type": "Feature", "id": 9, "properties": {"LocSite": "Median", "DBH": 12.0, "CommonName": "Mediterranean Fan Palm", "Height": "NULL", "TreeID": 27647.0, "Street": "Sloat Blvd", "SiteOrder": 1.0, "ICOUNT": 1, "LatinName": "Chamaerops humilis", "AddressNo": 2300.0}},{"geometry": {"type": "Point", "coordinates": [-122.49865435546356, 37.73428241228398]}, "type": "Feature", "id": 10, "properties": {"LocSite": "Median", "DBH": 12.0, "CommonName": "Mediterranean Fan Palm", "Height": "NULL", "TreeID": 27646.0, "Street": "Sloat Blvd", "SiteOrder": 1.0, "ICOUNT": 1, "LatinName": "Chamaerops humilis", "AddressNo": 2260.0}}]}